,store_id,City,state_id,state_code,Region,country_id,country_code,Country,latitude,longitude,wikiDataId
0,5288,Freemans Reach,3909,NSW,New South Wales,14,AU,Australia,-33.55794,150.79553,Q5501052
1,4234,Berowra,3909,NSW,New South Wales,14,AU,Australia,-33.62078,151.15091,Q4894660
2,4096,Bangor,3909,NSW,New South Wales,14,AU,Australia,-34.01667,151.03333,Q4855528
3,4124,Barnsley,3909,NSW,New South Wales,14,AU,Australia,-32.93333,151.58333,Q4861887
4,7487,The Hill,3909,NSW,New South Wales,14,AU,Australia,-32.93089,151.77835,Q7735781
5,5237,Finley,3909,NSW,New South Wales,14,AU,Australia,-35.65498,145.57106,Q3072635
6,7399,Sutton,3909,NSW,New South Wales,14,AU,Australia,-35.16667,149.25,Q7650190
7,5828,Kensington,3909,NSW,New South Wales,14,AU,Australia,-33.92019,151.22241,Q2916106
8,7913,Woodbine,3909,NSW,New South Wales,14,AU,Australia,-34.04589,150.82146,Q8032347
9,7405,Swansea,3909,NSW,New South Wales,14,AU,Australia,-33.08765,151.63745,Q7653652
10,7715,Warrane,3908,TAS,Tasmania,14,AU,Australia,-42.85546,147.38297,Q7969935
11,4707,Circular Head,3908,TAS,Tasmania,14,AU,Australia,-41.01991,145.08366,Q764011
12,6560,New Norfolk,3908,TAS,Tasmania,14,AU,Australia,-42.78261,147.0587,Q1982848
13,6959,Ranelagh,3908,TAS,Tasmania,14,AU,Australia,-43.00977,147.03764,Q14935641
14,5867,Kingborough,3908,TAS,Tasmania,14,AU,Australia,-42.97451,147.25113,Q1742110
15,4399,Bridport,3908,TAS,Tasmania,14,AU,Australia,-41.00046,147.39175,Q181428
16,7009,Richmond,3908,TAS,Tasmania,14,AU,Australia,-42.73554,147.43833,Q3407391
17,6005,Lenah Valley,3908,TAS,Tasmania,14,AU,Australia,-42.87146,147.27514,Q6522224
18,6028,Lindisfarne,3908,TAS,Tasmania,14,AU,Australia,-42.84837,147.36192,Q124370
19,4689,Chigwell,3908,TAS,Tasmania,14,AU,Australia,-42.80912,147.2448,Q5097245
20,6992,Reid,3907,ACT,Australian Capital Territory,14,AU,Australia,-35.28578,149.13905,Q850226
21,6820,Pearce,3907,ACT,Australian Capital Territory,14,AU,Australia,-35.36222,149.08338,Q302921
22,6691,O'Connor,3907,ACT,Australian Capital Territory,14,AU,Australia,-35.25645,149.11248,Q4328794
23,7955,Wright,3907,ACT,Australian Capital Territory,14,AU,Australia,-35.32239,149.03456,Q8037471
24,5239,Fisher,3907,ACT,Australian Capital Territory,14,AU,Australia,-35.36126,149.05704,Q1001743
25,6977,Red Hill,3907,ACT,Australian Capital Territory,14,AU,Australia,-35.32624,149.11906,Q3422727
26,6345,Monash,3907,ACT,Australian Capital Territory,14,AU,Australia,-35.41577,149.09063,Q6898218
27,5340,Giralang,3907,ACT,Australian Capital Territory,14,AU,Australia,-35.21093,149.096,Q1010709
28,3915,Acton,3907,ACT,Australian Capital Territory,14,AU,Australia,-35.27767,149.11829,Q482055
29,4436,Bruce,3907,ACT,Australian Capital Territory,14,AU,Australia,-35.24405,149.09083,Q4977003
30,7658,Waikiki,3906,WA,Western Australia,14,AU,Australia,-32.31606,115.7546,Q7960019
31,4458,Bullsbrook,3906,WA,Western Australia,14,AU,Australia,-31.66905,115.9999,Q4997041
32,6481,Mundijong,3906,WA,Western Australia,14,AU,Australia,-32.29217,115.98564,Q3867110
33,4570,Canning Vale,3906,WA,Western Australia,14,AU,Australia,-32.05799,115.91814,Q5032698
34,7371,Subiaco,3906,WA,Western Australia,14,AU,Australia,-31.95964,115.81564,Q1857834
35,4505,Busselton,3906,WA,Western Australia,14,AU,Australia,-33.68477,115.3708,Q573771
36,7853,Willagee,3906,WA,Western Australia,14,AU,Australia,-32.05196,115.80533,Q8001633
37,6687,Nungarin,3906,WA,Western Australia,14,AU,Australia,-31.13714,118.21768,Q593802
38,4589,Cardup,3906,WA,Western Australia,14,AU,Australia,-32.25802,115.98512,Q21895169
39,7192,Shark Bay,3906,WA,Western Australia,14,AU,Australia,-26.38916,114.21845,Q1855284
40,7643,Virginia,3910,NT,Northern Territory,14,AU,Australia,-12.51895,131.02844,Q7934081
41,3928,Alawa,3910,NT,Northern Territory,14,AU,Australia,-12.37954,130.8732,Q4708892
42,6585,Nhulunbuy,3910,NT,Northern Territory,14,AU,Australia,-12.18165,136.77841,Q17996
43,5216,Fannie Bay,3910,NT,Northern Territory,14,AU,Australia,-12.42275,130.83627,Q5433948
44,4651,Central Desert,3910,NT,Northern Territory,14,AU,Australia,-21.07203,133.49949,Q866695
45,7521,Tiwi,3910,NT,Northern Territory,14,AU,Australia,-12.35876,130.878,Q7810475
46,4380,Braitling,3910,NT,Northern Territory,14,AU,Australia,-23.68005,133.86877,Q2923580
47,5027,Driver,3910,NT,Northern Territory,14,AU,Australia,-12.48602,130.97539,Q5307982
48,3993,Araluen,3910,NT,Northern Territory,14,AU,Australia,-23.69601,133.854,Q4781322
49,7075,Ross,3910,NT,Northern Territory,14,AU,Australia,-23.74424,133.90358,Q2167341
50,8693,Brussels,1376,BRU,Brussels-Capital Region,22,BE,Belgium,50.85045,4.34878,Q239
51,8986,Peer,1373,VLG,Flanders,22,BE,Belgium,51.1303,5.45952,Q21764310
52,9118,Wellen,1373,VLG,Flanders,22,BE,Belgium,50.84096,5.33867,Q21760239
53,8895,Lille,1373,VLG,Flanders,22,BE,Belgium,51.24197,4.82313,Q21765583
54,8626,Arendonk,1373,VLG,Flanders,22,BE,Belgium,51.32267,5.08289,Q21770093
55,9050,Sint-Kruis,1373,VLG,Flanders,22,BE,Belgium,51.21399,3.24949,Q2505670
56,9040,Schilde,1373,VLG,Flanders,22,BE,Belgium,51.24107,4.58336,Q31514505
57,8974,Ostend,1373,VLG,Flanders,22,BE,Belgium,51.21551,2.927,Q21766156
58,8835,Hove,1373,VLG,Flanders,22,BE,Belgium,51.15446,4.4707,Q21767915
59,8614,Alveringem,1373,VLG,Flanders,22,BE,Belgium,51.01238,2.71117,Q21770057
60,8935,Middelkerke,1373,VLG,Flanders,22,BE,Belgium,51.18532,2.82077,Q21765816
61,8679,Bouillon,1380,WAL,Wallonia,22,BE,Belgium,49.79324,5.06703,Q12360419
62,8620,Ans,1380,WAL,Wallonia,22,BE,Belgium,50.6623,5.52029,Q31466969
63,8993,Plombières,1380,WAL,Wallonia,22,BE,Belgium,50.73656,5.95922,Q21764380
64,8759,Ferrières,1380,WAL,Wallonia,22,BE,Belgium,50.40157,5.61092,Q21768849
65,8939,Momignies,1380,WAL,Wallonia,22,BE,Belgium,50.0271,4.16519,Q21765930
66,9119,Wellin,1380,WAL,Wallonia,22,BE,Belgium,50.08133,5.11413,Q21760242
67,9018,Remicourt,1380,WAL,Wallonia,22,BE,Belgium,50.68069,5.32785,Q21764500
68,8784,Gerpinnes,1380,WAL,Wallonia,22,BE,Belgium,50.33789,4.52731,Q21769026
69,8627,Arlon,1380,WAL,Wallonia,22,BE,Belgium,49.68333,5.81667,Q12359550
70,9101,Virton,1380,WAL,Wallonia,22,BE,Belgium,49.56824,5.53259,Q51367625
71,16636,Lumsden,870,SK,Saskatchewan,39,CA,Canada,50.65009,-104.86783,Q2957128
72,17198,Weyburn,870,SK,Saskatchewan,39,CA,Canada,49.66675,-103.85109,Q1904554
73,17179,Watrous,870,SK,Saskatchewan,39,CA,Canada,51.66677,-105.46788,Q1917524
74,16532,Kamsack,870,SK,Saskatchewan,39,CA,Canada,51.56668,-101.90093,Q990470
75,17116,Tisdale,870,SK,Saskatchewan,39,CA,Canada,52.85002,-104.05096,Q1917345
76,16410,Esterhazy,870,SK,Saskatchewan,39,CA,Canada,50.65001,-102.08426,Q727984
77,16596,Langham,870,SK,Saskatchewan,39,CA,Canada,52.3668,-106.96793,Q1915082
78,17218,Wynyard,870,SK,Saskatchewan,39,CA,Canada,51.76674,-104.18436,Q1917692
79,16282,Carlyle,870,SK,Saskatchewan,39,CA,Canada,49.63334,-102.26765,Q1099089
80,16807,Pelican Narrows,870,SK,Saskatchewan,39,CA,Canada,55.16685,-102.9341,Q50811
81,17055,Souris,871,PE,Prince Edward Island,39,CA,Canada,46.3501,-62.24862,Q2167346
82,16210,Belfast,871,PE,Prince Edward Island,39,CA,Canada,46.08341,-62.88197,Q2894317
83,16538,Kensington,871,PE,Prince Edward Island,39,CA,Canada,46.43343,-63.64871,Q2126898
84,16154,Alberton,871,PE,Prince Edward Island,39,CA,Canada,46.81685,-64.06542,Q740843
85,17087,Summerside,871,PE,Prince Edward Island,39,CA,Canada,46.39593,-63.78762,Q863058
86,16297,Charlottetown,871,PE,Prince Edward Island,39,CA,Canada,46.23899,-63.13414,Q2127
87,16417,Fallingbrook,871,PE,Prince Edward Island,39,CA,Canada,45.47558,-75.48401,Q1744221
88,16338,Cornwall,871,PE,Prince Edward Island,39,CA,Canada,46.22652,-63.21809,Q1018959
89,16707,Montague,871,PE,Prince Edward Island,39,CA,Canada,46.16681,-62.64866,Q1009804
90,16892,Rimbey,872,AB,Alberta,39,CA,Canada,52.6334,-114.23532,Q7334420
91,16196,Bassano,872,AB,Alberta,39,CA,Canada,50.78342,-112.46854,Q773061
92,16466,Grande Cache,872,AB,Alberta,39,CA,Canada,53.88335,-119.13585,Q1542954
93,16729,Nanton,872,AB,Alberta,39,CA,Canada,50.35008,-113.76866,Q1744143
94,16229,Bonnyville,872,AB,Alberta,39,CA,Canada,54.26684,-110.73505,Q892841
95,16503,High Level,872,AB,Alberta,39,CA,Canada,58.51688,-117.13605,Q430949
96,16774,Okotoks,872,AB,Alberta,39,CA,Canada,50.72885,-113.98281,Q1363726
97,16689,Mill Woods Town Centre,872,AB,Alberta,39,CA,Canada,53.45639,-113.42751,Q6850915
98,16505,High River,872,AB,Alberta,39,CA,Canada,50.58341,-113.86867,Q1743705
99,16234,Bow Island,872,AB,Alberta,39,CA,Canada,49.86676,-111.36843,Q573968
100,16237,Brampton,866,ON,Ontario,39,CA,Canada,43.68341,-79.76633,Q44198
101,16168,Angus,866,ON,Ontario,39,CA,Canada,44.31681,-79.88295,Q2849264
102,17150,Vaughan,866,ON,Ontario,39,CA,Canada,43.8361,-79.49827,Q44013
103,149581,Thornhill,866,ON,Ontario,39,CA,Canada,43.8170848,-79.4501194,Q3525848
104,17209,Winchester,866,ON,Ontario,39,CA,Canada,45.0834,-75.34933,Q2039207
105,16853,Prescott,866,ON,Ontario,39,CA,Canada,44.71681,-75.51604,Q2420628
106,17059,South River,866,ON,Ontario,39,CA,Canada,45.8334,-79.38293,Q3492521
107,17142,Valley East,866,ON,Ontario,39,CA,Canada,46.66773,-81.00028,Q141813
108,16180,Attawapiskat,866,ON,Ontario,39,CA,Canada,52.92774,-82.41669,Q1656303
109,16650,Manitoulin District,866,ON,Ontario,39,CA,Canada,45.75007,-82.49985,Q1815566
110,16209,Behchokǫ̀,878,NT,Northwest Territories,39,CA,Canada,62.8025,-116.04639,Q141987
111,16431,Fort McPherson,878,NT,Northwest Territories,39,CA,Canada,67.43863,-134.88543,Q1014119
112,16753,Norman Wells,878,NT,Northwest Territories,39,CA,Canada,65.28201,-126.8329,Q3343828
113,16434,Fort Smith,878,NT,Northwest Territories,39,CA,Canada,60.00439,-111.88871,Q686415
114,16522,Inuvik,878,NT,Northwest Territories,39,CA,Canada,68.34986,-133.72181,Q338686
115,16498,Hay River,878,NT,Northwest Territories,39,CA,Canada,60.81555,-115.79993,Q1013062
116,17221,Yellowknife,878,NT,Northwest Territories,39,CA,Canada,62.45411,-114.37248,Q2061
117,20049,Saga,2264,XZ,Xizang,45,CN,China,29.32367,85.22601,Q1207131
118,20004,Qamdo Shi,2264,XZ,Xizang,45,CN,China,31.5837,97.22304,Q1012419
119,19354,Burang,2264,XZ,Xizang,45,CN,China,30.29559,81.17511,Q360769
120,20003,Qamdo,2264,XZ,Xizang,45,CN,China,31.1304,97.17982,Q404484
121,19934,Nagqu Diqu,2264,XZ,Xizang,45,CN,China,32.66357,88.93146,Q1026114
122,19705,Jiangzi,2264,XZ,Xizang,45,CN,China,28.92026,89.59956,Q1015823
123,19488,Dêqên,2264,XZ,Xizang,45,CN,China,29.96178,90.71875,Q1207027
124,20074,Shannan Diqu,2264,XZ,Xizang,45,CN,China,28.5563,92.55684,Q777171
125,19933,Nagqu,2264,XZ,Xizang,45,CN,China,31.47678,92.05729,Q1012460
126,19966,Nyingchi Prefecture,2264,XZ,Xizang,45,CN,China,29.60092,94.42406,Q1012465
127,149274,TaiZhou,2250,JS,Jiangsu,45,CN,China,32.31841,119.88116,Q58273
128,149265,XuZhou,2250,JS,Jiangsu,45,CN,China,34.28823,117.18554,Q57719
129,149266,ChangZhou,2250,JS,Jiangsu,45,CN,China,31.72322,119.59794,Q57970
130,149272,YangZhou,2250,JS,Jiangsu,45,CN,China,32.39463,119.43157,Q57906
131,149263,NanJing,2250,JS,Jiangsu,45,CN,China,31.32751,118.8921,Q16666
132,149267,SuZhou,2250,JS,Jiangsu,45,CN,China,31.30227,120.63132,Q42622
133,149270,HuaiAn,2250,JS,Jiangsu,45,CN,China,33.29433,118.8735,Q57818
134,19592,Haizhou,2250,JS,Jiangsu,45,CN,China,34.57300501,119.1612617,Q286266
135,149273,ZhenJiang,2250,JS,Jiangsu,45,CN,China,32.13188,119.43396,Q57958
136,149269,LianYunGang,2250,JS,Jiangsu,45,CN,China,34.84065,119.1773,Q57756
137,19378,Changzhi,2254,SX,Shanxi,45,CN,China,36.18389,113.10528,Q72945
138,19436,Datong,2254,SX,Shanxi,45,CN,China,40.09361,113.29139,Q304848
139,19896,Lüliang,2254,SX,Shanxi,45,CN,China,37.73563,111.30538,Q73186
140,19729,Jincheng,2254,SX,Shanxi,45,CN,China,35.50222,112.83278,Q72990
141,19580,Gutao,2254,SX,Shanxi,45,CN,China,37.2025,112.17806,Q1285102
142,20318,Xinzhou,2254,SX,Shanxi,45,CN,China,38.40917,112.73333,Q73119
143,20394,Yuci,2254,SX,Shanxi,45,CN,China,37.68028,112.73194,Q427557
144,20391,Yuanping,2254,SX,Shanxi,45,CN,China,38.71528,112.7575,Q1331388
145,20307,Xintian,2254,SX,Shanxi,45,CN,China,35.61358,111.3566,Q975264
146,19437,Datong Shi,2254,SX,Shanxi,45,CN,China,40.10484,113.63334,Q72877
147,19674,Huinan,2253,JL,Jilin,45,CN,China,42.6225,126.26139,Q713340
148,20190,Tonghua,2253,JL,Jilin,45,CN,China,41.71972,125.92639,Q92324
149,20350,Yanji,2253,JL,Jilin,45,CN,China,42.9075,129.50778,Q713362
150,19529,Fuyu,2253,JL,Jilin,45,CN,China,45.18333,124.81667,Q360584
151,20198,Tumen,2253,JL,Jilin,45,CN,China,42.96611,129.8425,Q713323
152,19381,Chaoyang,2253,JL,Jilin,45,CN,China,42.66223,126.0263,Q57970
153,19634,Huadian,2253,JL,Jilin,45,CN,China,42.96333,126.74778,Q1020350
154,20438,Zhengjiatun,2253,JL,Jilin,45,CN,China,43.50639,123.50639,Q197524
155,19363,Changchun,2253,JL,Jilin,45,CN,China,43.88,125.32278,Q92161
156,19922,Mingyue,2253,JL,Jilin,45,CN,China,43.10694,128.92167,Q1334907
157,20056,Sansha,2273,HI,Hainan,45,CN,China,16.83387,112.33435,Q68614
158,20209,Wanning,2273,HI,Hainan,45,CN,China,18.79931,110.3841,Q997593
159,19321,Basuo,2273,HI,Hainan,45,CN,China,19.0939,108.65456,Q174123
160,20217,Wenchang,2273,HI,Hainan,45,CN,China,19.6157,110.74894,Q997767
161,19837,Lincheng,2273,HI,Hainan,45,CN,China,19.90778,109.68583,Q496837
162,20034,Qiongshan,2273,HI,Hainan,45,CN,China,20.00583,110.35417,Q1005059
163,19415,Dadonghai,2273,HI,Hainan,45,CN,China,18.22056,109.51028,Q114045
164,19406,Chongshan,2273,HI,Hainan,45,CN,China,18.78229,109.5013,Q1001424
165,20325,Xiuying,2273,HI,Hainan,45,CN,China,20.00073,110.29359,Q1359319
166,19745,Jinjiang,2273,HI,Hainan,45,CN,China,19.72878,110.00851,Q128883
167,47449,Vaas,4802,PDL,Pays-de-la-Loire,75,FR,France,47.6689,0.31677,Q216966
168,46033,Saint-Gildas-des-Bois,4802,PDL,Pays-de-la-Loire,75,FR,France,47.51622,-2.03659,Q127932
169,41288,Couëron,4802,PDL,Pays-de-la-Loire,75,FR,France,47.21508,-1.72171,Q34797247
170,46647,Saint-Étienne-de-Mer-Morte,4802,PDL,Pays-de-la-Loire,75,FR,France,46.92848,-1.74272,Q687553
171,40692,Challans,4802,PDL,Pays-de-la-Loire,75,FR,France,46.84363,-1.87491,Q34791393
172,45628,Rouillon,4802,PDL,Pays-de-la-Loire,75,FR,France,48.00629,0.13527,Q1065301
173,43260,Le Pin-en-Mauges,4802,PDL,Pays-de-la-Loire,75,FR,France,47.25357,-0.89917,Q35714148
174,42766,La Gaubretière,4802,PDL,Pays-de-la-Loire,75,FR,France,46.94143,-1.06215,Q35708608
175,40248,Brain-sur-Allonnes,4802,PDL,Pays-de-la-Loire,75,FR,France,47.30325,0.06514,Q1135654
176,46254,Saint-Mars-de-Coutais,4802,PDL,Pays-de-la-Loire,75,FR,France,47.11153,-1.73437,Q1065403
177,44411,Mouthiers-sur-Boëme,4795,NAQ,Nouvelle-Aquitaine,75,FR,France,45.55,0.11667,Q1624285
178,41237,Coulonges-sur-l’Autize,4795,NAQ,Nouvelle-Aquitaine,75,FR,France,46.48333,-0.59845,Q34796924
179,42869,La Réole,4795,NAQ,Nouvelle-Aquitaine,75,FR,France,44.58201,-0.03691,Q263456
180,43722,Magnac-sur-Touvre,4795,NAQ,Nouvelle-Aquitaine,75,FR,France,45.66667,0.23333,Q829952
181,39801,Bassens,4795,NAQ,Nouvelle-Aquitaine,75,FR,France,44.90226,-0.51631,Q1115736
182,47241,Thiviers,4795,NAQ,Nouvelle-Aquitaine,75,FR,France,45.41542,0.91963,Q629705
183,46444,Saint-Pierre-d’Aurillac,4795,NAQ,Nouvelle-Aquitaine,75,FR,France,44.57168,-0.18922,Q973571
184,43628,Lubersac,4795,NAQ,Nouvelle-Aquitaine,75,FR,France,45.44474,1.40457,Q1020851
185,39942,Benquet,4795,NAQ,Nouvelle-Aquitaine,75,FR,France,43.82992,-0.50102,Q223902
186,44167,Montagne,4795,NAQ,Nouvelle-Aquitaine,75,FR,France,44.93333,-0.13333,Q35732429
187,43331,Le Versoud,4798,ARA,Auvergne-Rhône-Alpes,75,FR,France,45.21988,5.86502,Q186324
188,46829,Satillieu,4798,ARA,Auvergne-Rhône-Alpes,75,FR,France,45.15041,4.6141,Q3473934
189,40930,Chuzelles,4798,ARA,Auvergne-Rhône-Alpes,75,FR,France,45.58481,4.87703,Q681259
190,43353,Lentilly,4798,ARA,Auvergne-Rhône-Alpes,75,FR,France,45.81873,4.66304,Q165271
191,47625,Vernoux-en-Vivarais,4798,ARA,Auvergne-Rhône-Alpes,75,FR,France,44.89577,4.64524,Q950679
192,45998,Saint-Germain-Lembron,4798,ARA,Auvergne-Rhône-Alpes,75,FR,France,45.45793,3.23973,Q1366381
193,44842,Panissières,4798,ARA,Auvergne-Rhône-Alpes,75,FR,France,45.79185,4.34163,Q735675
194,43160,Le Chambon-Feugerolles,4798,ARA,Auvergne-Rhône-Alpes,75,FR,France,45.39145,4.32149,Q35713181
195,39922,Belleville,4798,ARA,Auvergne-Rhône-Alpes,75,FR,France,46.10867,4.7492,Q583071
196,40192,Bourg-de-Thizy,4798,ARA,Auvergne-Rhône-Alpes,75,FR,France,46.03371,4.29904,Q1364098
197,44156,Mont-Saint-Aignan,4804,NOR,Normandie,75,FR,France,49.46307,1.09364,Q1055925
198,45904,Saint-Denis-sur-Sarthon,4804,NOR,Normandie,75,FR,France,48.4532,-0.0472,Q853458
199,39362,Amfreville,4804,NOR,Normandie,75,FR,France,49.25,-0.23333,Q192166
200,41894,Fontenay,4804,NOR,Normandie,75,FR,France,49.55993,0.18391,Q1166745
201,40370,Buchy,4804,NOR,Normandie,75,FR,France,49.58513,1.35852,Q272472
202,43918,Martin-Église,4804,NOR,Normandie,75,FR,France,49.90174,1.1412,Q327277
203,48016,Yvetot,4804,NOR,Normandie,75,FR,France,49.61744,0.75814,Q691278
204,47292,Tollevast,4804,NOR,Normandie,75,FR,France,49.57437,-1.62746,Q770049
205,41137,Condé-sur-Noireau,4804,NOR,Normandie,75,FR,France,48.84881,-0.55214,Q244196
206,41425,Damville,4804,NOR,Normandie,75,FR,France,48.8693,1.07458,Q34800225
207,42078,Gespunsart,4820,GES,Grand-Est,75,FR,France,49.82143,4.82926,Q1059614
208,46209,Saint-Lyé,4820,GES,Grand-Est,75,FR,France,48.36502,3.999,Q1153078
209,44501,Nancy,4820,GES,Grand-Est,75,FR,France,48.68439,6.18496,Q40898
210,45553,Rocroi,4820,GES,Grand-Est,75,FR,France,49.9261,4.5222,Q273702
211,45445,Reichstett,4820,GES,Grand-Est,75,FR,France,48.64856,7.75455,Q21346
212,39704,Badonviller,4820,GES,Grand-Est,75,FR,France,48.50116,6.89218,Q501953
213,44436,Mundolsheim,4820,GES,Grand-Est,75,FR,France,48.64215,7.71378,Q22870
214,44920,Petite-Rosselle,4820,GES,Grand-Est,75,FR,France,49.21177,6.85607,Q1065286
215,46901,Schnersheim,4820,GES,Grand-Est,75,FR,France,48.65741,7.56701,Q21484
216,40979,Châteauvillain,4820,GES,Grand-Est,75,FR,France,48.03655,4.91823,Q681210
217,29766,Unterkrozingen,3006,BW,Baden-Württemberg,82,DE,Germany,47.91933,7.69045,Q81419
218,25921,Hasel,3006,BW,Baden-Württemberg,82,DE,Germany,47.65342,7.8972,Q685358
219,25774,Gärtringen,3006,BW,Baden-Württemberg,82,DE,Germany,48.64176,8.90073,Q550684
220,23623,Althengstett,3006,BW,Baden-Württemberg,82,DE,Germany,48.72325,8.79434,Q372198
221,24704,Dischingen,3006,BW,Baden-Württemberg,82,DE,Germany,48.7,10.36667,Q1228438
222,23562,Allmersbach im Tal,3006,BW,Baden-Württemberg,82,DE,Germany,48.90659,9.46815,Q81748
223,25507,Glatten,3006,BW,Baden-Württemberg,82,DE,Germany,48.44246,8.51116,Q80475
224,26981,Lautenbach,3006,BW,Baden-Württemberg,82,DE,Germany,48.48185,8.02732,Q518383
225,27020,Leimen,3006,BW,Baden-Württemberg,82,DE,Germany,49.34737,8.68733,Q23007
226,28335,Plüderhausen,3006,BW,Baden-Württemberg,82,DE,Germany,48.79875,9.59587,Q83214
227,24923,Eiselfing,3009,BY,Bavaria,82,DE,Germany,48.04114,12.24272,Q545191
228,25263,Freystadt,3009,BY,Bavaria,82,DE,Germany,49.20007,11.33032,Q32018063
229,25253,Fremdingen,3009,BY,Bavaria,82,DE,Germany,48.97241,10.45754,Q504189
230,25454,Gerolsbach,3009,BY,Bavaria,82,DE,Germany,48.49283,11.36149,Q260245
231,28282,Pfarrweisach,3009,BY,Bavaria,82,DE,Germany,50.15,10.73333,Q504412
232,28640,Riegsee,3009,BY,Bavaria,82,DE,Germany,47.69867,11.23391,Q628341
233,28503,Rechtenbach,3009,BY,Bavaria,82,DE,Germany,49.98306,9.50833,Q508908
234,26940,Langquaid,3009,BY,Bavaria,82,DE,Germany,48.82318,12.05134,Q32087620
235,28763,Runding,3009,BY,Bavaria,82,DE,Germany,49.21513,12.76208,Q520970
236,28312,Planegg,3009,BY,Bavaria,82,DE,Germany,48.10672,11.42483,Q255796
237,26284,Hummelsbüttel,3016,HH,Hamburg,82,DE,Germany,53.64773,10.04149,Q636321
238,25868,Hamburg-Mitte,3016,HH,Hamburg,82,DE,Germany,53.55,10.01667,Q1626
239,24047,Bergstedt,3016,HH,Hamburg,82,DE,Germany,53.67111,10.12694,Q1641
240,29311,St. Georg,3016,HH,Hamburg,82,DE,Germany,53.55513,10.01231,Q1560
241,30333,Winterhude,3016,HH,Hamburg,82,DE,Germany,53.6,10,Q1148
242,28181,Ottensen,3016,HH,Hamburg,82,DE,Germany,53.55,9.91667,Q1597
243,24788,Duvenstedt,3016,HH,Hamburg,82,DE,Germany,53.70806,10.10444,Q1806
244,28351,Poppenbüttel,3016,HH,Hamburg,82,DE,Germany,53.65917,10.08472,Q1818
245,28098,Ohlsdorf,3016,HH,Hamburg,82,DE,Germany,53.62594,10.03145,Q533966
246,25897,Harburg,3016,HH,Hamburg,82,DE,Germany,53.46057,9.98388,Q1635
247,29553,Tellingstedt,3005,SH,Schleswig-Holstein,82,DE,Germany,54.21667,9.28333,Q550433
248,29044,Schwabstedt,3005,SH,Schleswig-Holstein,82,DE,Germany,54.39705,9.18646,Q28050
249,25291,Friedrichskoog,3005,SH,Schleswig-Holstein,82,DE,Germany,54.01667,8.91667,Q538124
250,28389,Prisdorf,3005,SH,Schleswig-Holstein,82,DE,Germany,53.68333,9.75,Q8759
251,26211,Hohenlockstedt,3005,SH,Schleswig-Holstein,82,DE,Germany,53.96667,9.61667,Q428389
252,28927,Schellhorn,3005,SH,Schleswig-Holstein,82,DE,Germany,54.22952,10.29402,Q694793
253,25077,Escheburg,3005,SH,Schleswig-Holstein,82,DE,Germany,53.46667,10.31667,Q555756
254,25527,Goel,3005,SH,Schleswig-Holstein,82,DE,Germany,54.2835,10.94036,Q585507
255,29216,Siek,3005,SH,Schleswig-Holstein,82,DE,Germany,53.63333,10.3,Q669139
256,24259,Borstel-Hohenraden,3005,SH,Schleswig-Holstein,82,DE,Germany,53.68333,9.81667,Q574233
257,29864,Vockerode,3011,ST,Saxony-Anhalt,82,DE,Germany,51.84698,12.35208,Q631408
258,24049,Bergwitz,3011,ST,Saxony-Anhalt,82,DE,Germany,51.79479,12.58954,Q633869
259,23786,Bad Dürrenberg,3011,ST,Saxony-Anhalt,82,DE,Germany,51.29545,12.06583,Q518392
260,30205,Westeregeln,3011,ST,Saxony-Anhalt,82,DE,Germany,51.96328,11.39265,Q687563
261,24636,Derenburg,3011,ST,Saxony-Anhalt,82,DE,Germany,51.87086,10.91029,Q431886
262,28154,Osternienburg,3011,ST,Saxony-Anhalt,82,DE,Germany,51.79384,12.02616,Q688246
263,24899,Eichenbarleben,3011,ST,Saxony-Anhalt,82,DE,Germany,52.16688,11.40125,Q80032
264,25638,Groß Rosenburg,3011,ST,Saxony-Anhalt,82,DE,Germany,51.91696,11.89184,Q177585
265,29505,Süplingen,3011,ST,Saxony-Anhalt,82,DE,Germany,52.28759,11.3245,Q663684
266,25798,Güsten,3011,ST,Saxony-Anhalt,82,DE,Germany,51.79637,11.61246,Q246502
267,141880,Bansihari community development block,4853,WB,West Bengal,101,IN,India,25.4,88.4167,Q4857141
268,142033,Nabagram,4853,WB,West Bengal,101,IN,India,22.29,88.51,Q2733965
269,142074,Rishra,4853,WB,West Bengal,101,IN,India,22.71,88.35,Q2453443
270,142037,Naihati,4853,WB,West Bengal,101,IN,India,22.9,88.42,Q68593
271,142063,Raghudebbati,4853,WB,West Bengal,101,IN,India,22.53,88.2,Q593506
272,142110,Uttar Dinajpur district,4853,WB,West Bengal,101,IN,India,25.62,88.12,Q2019766
273,142024,Mejia community development block,4853,WB,West Bengal,101,IN,India,23.57,87.1,Q6810483
274,141993,Kenda,4853,WB,West Bengal,101,IN,India,23.2,86.53,Q2138474
275,141860,Arambagh community development block,4853,WB,West Bengal,101,IN,India,22.88,87.78,Q4783988
276,142029,Muragacha,4853,WB,West Bengal,101,IN,India,23.53631,88.39425,Q1125517
277,132427,Katra,4029,JK,Jammu and Kashmir,101,IN,India,32.99167,74.93195,Q2668323
278,134141,Thanna Mandi,4029,JK,Jammu and Kashmir,101,IN,India,33.54204,74.381,Q15194
279,134139,Thang,4029,JK,Jammu and Kashmir,101,IN,India,34.9274,76.79336,Q943099
280,131898,Ganderbal,4029,JK,Jammu and Kashmir,101,IN,India,34.29467,75.19996,Q2556028
281,134000,Sopur,4029,JK,Jammu and Kashmir,101,IN,India,34.28671,74.47228,Q2321929
282,57852,Banihal,4029,JK,Jammu and Kashmir,101,IN,India,33.43647,75.19684,Q634172
283,132253,Jaurian,4029,JK,Jammu and Kashmir,101,IN,India,32.83255,74.57612,Q1356060
284,134257,Udhampur,4029,JK,Jammu and Kashmir,101,IN,India,33,75.16667,Q1947311
285,57790,Badgam,4029,JK,Jammu and Kashmir,101,IN,India,33.89001,74.66297,Q2594218
286,133388,Pattan,4029,JK,Jammu and Kashmir,101,IN,India,34.16125,74.55634,Q2228603
287,132830,Mahe,4011,PY,Puducherry,101,IN,India,11.7,75.53333,Q639279
288,134425,Yanam,4011,PY,Puducherry,101,IN,India,16.73463,82.21773,Q2126598
289,132715,Karaikal,4011,PY,Puducherry,101,IN,India,10.92209,79.83353,Q639264
290,133490,Puducherry,4011,PY,Puducherry,101,IN,India,11.93381,79.82979,Q639421
291,132884,Manapparai,4035,TN,Tamil Nadu,101,IN,India,10.60772,78.42582,Q2554965
292,134358,Vikravandi,4035,TN,Tamil Nadu,101,IN,India,12.0369,79.54595,Q2234286
293,134302,Uttiramerur,4035,TN,Tamil Nadu,101,IN,India,12.61433,79.75748,Q17075659
294,133469,Pollachi,4035,TN,Tamil Nadu,101,IN,India,10.65825,77.0085,Q298780
295,132882,Manamadurai,4035,TN,Tamil Nadu,101,IN,India,9.67318,78.47096,Q2444092
296,134095,Surandai,4035,TN,Tamil Nadu,101,IN,India,8.97574,77.41923,Q2715986
297,134193,Tiruttangal,4035,TN,Tamil Nadu,101,IN,India,9.48333,77.83333,Q2722267
298,133418,Periyanayakkanpalaiyam,4035,TN,Tamil Nadu,101,IN,India,11.15255,76.95159,Q2543104
299,134239,Taramangalam,4035,TN,Tamil Nadu,101,IN,India,11.69403,77.97035,Q2557937
300,133149,Nangilickondan,4035,TN,Tamil Nadu,101,IN,India,12.25539,79.47508,Q2541538
301,134313,Vaikam,4028,KL,Kerala,101,IN,India,9.74858,76.39637,Q2477208
302,57945,Beypore,4028,KL,Kerala,101,IN,India,11.17151,75.80611,Q759539
303,57703,Angamali,4028,KL,Kerala,101,IN,India,10.19055,76.38789,Q588701
304,133399,Payyanur,4028,KL,Kerala,101,IN,India,12.0935,75.20249,Q539909
305,134161,Thrissur,4028,KL,Kerala,101,IN,India,10.51667,76.21667,Q163798
306,133050,Muvattupuzha,4028,KL,Kerala,101,IN,India,9.97985,76.57381,Q2341743
307,132344,Kalamassery,4028,KL,Kerala,101,IN,India,10.0614,76.32631,Q2475675
308,132707,Kanhangad,4028,KL,Kerala,101,IN,India,12.30814,75.10632,Q720627
309,134103,Taliparamba,4028,KL,Kerala,101,IN,India,12.04161,75.35927,Q2568358
310,58195,Changanacheri,4028,KL,Kerala,101,IN,India,9.44203,76.53604,Q721388
311,56195,Bandar Lampung,1811,LA,Lampung,102,ID,Indonesia,-5.42917,105.26111,Q8156
312,56484,Kabupaten Lampung Barat,1811,LA,Lampung,102,ID,Indonesia,-5.14904,104.19309,Q8153
313,56488,Kabupaten Lampung Utara,1811,LA,Lampung,102,ID,Indonesia,-4.81667,104.8,Q8140
314,56871,Metro,1811,LA,Lampung,102,ID,Indonesia,-5.11306,105.30667,Q8158
315,56817,Kotabumi,1811,LA,Lampung,102,ID,Indonesia,-4.82505,104.8817,Q19153
316,56687,Kabupaten Tulangbawang,1811,LA,Lampung,102,ID,Indonesia,-4.20604,105.57999,Q8151
317,56591,Kabupaten Pesisir Barat,1811,LA,Lampung,102,ID,Indonesia,-5.19323,103.93976,Q46481
318,56599,Kabupaten Pringsewu,1811,LA,Lampung,102,ID,Indonesia,-5.42211,104.93454,Q8145
319,56485,Kabupaten Lampung Selatan,1811,LA,Lampung,102,ID,Indonesia,-5.4531,104.9877,Q8147
320,57031,Terbanggi Besar,1811,LA,Lampung,102,ID,Indonesia,-4.87898,105.21818,Q24818441
321,56845,Loa Janan,1804,KI,Kalimantan Timur,102,ID,Indonesia,-0.58295,117.09503,Q5784
322,56588,Kabupaten Penajam Paser Utara,1804,KI,Kalimantan Timur,102,ID,Indonesia,-1.25,116.83333,Q14479
323,56190,Balikpapan,1804,KI,Kalimantan Timur,102,ID,Indonesia,-1.26753,116.82887,Q14492
324,56581,Kabupaten Paser,1804,KI,Kalimantan Timur,102,ID,Indonesia,-1.43517,116.23535,Q14485
325,56477,Kabupaten Kutai Kartanegara,1804,KI,Kalimantan Timur,102,ID,Indonesia,-0.44019,116.98139,Q14473
326,56254,City of Balikpapan,1804,KI,Kalimantan Timur,102,ID,Indonesia,-1.24204,116.89419,Q24982576
327,56229,Bontang,1804,KI,Kalimantan Timur,102,ID,Indonesia,0.1324,117.4854,Q14495
328,56959,Samarinda,1804,KI,Kalimantan Timur,102,ID,Indonesia,-0.49167,117.14583,Q14499
329,56476,Kabupaten Kutai Barat,1804,KI,Kalimantan Timur,102,ID,Indonesia,-0.59417,115.51575,Q14489
330,56507,Kabupaten Mahakam Hulu,1804,KI,Kalimantan Timur,102,ID,Indonesia,0.37822,115.38048,Q12488347
331,56414,Kabupaten Gunung Kidul,1829,YO,DI Yogyakarta,102,ID,Indonesia,-7.98333,110.61667,Q11478
332,57061,Yogyakarta,1829,YO,DI Yogyakarta,102,ID,Indonesia,-7.80139,110.36472,Q7568
333,56473,Kabupaten Kulon Progo,1829,YO,DI Yogyakarta,102,ID,Indonesia,-7.645,110.02694,Q11479
334,56338,Kabupaten Bantul,1829,YO,DI Yogyakarta,102,ID,Indonesia,-7.9,110.36667,Q11477
335,56637,Kabupaten Sleman,1829,YO,DI Yogyakarta,102,ID,Indonesia,-7.68167,110.32333,Q11480
336,56857,Mamuju,1817,SR,Sulawesi Barat,102,ID,Indonesia,-2.68056,118.88611,Q1070920
337,56517,Kabupaten Mamasa,1817,SR,Sulawesi Barat,102,ID,Indonesia,-2.96492,119.30631,Q15347
338,56596,Kabupaten Polewali Mandar,1817,SR,Sulawesi Barat,102,ID,Indonesia,-3.3,119.16667,Q15353
339,56509,Kabupaten Majene,1817,SR,Sulawesi Barat,102,ID,Indonesia,-3.15,118.86667,Q15344
340,56935,Polewali,1817,SR,Sulawesi Barat,102,ID,Indonesia,-3.4324,119.3435,Q24847469
341,56520,Kabupaten Mamuju,1817,SR,Sulawesi Barat,102,ID,Indonesia,-2.5,119.41667,Q15349
342,56522,Kabupaten Mamuju Utara,1817,SR,Sulawesi Barat,102,ID,Indonesia,-1.51639,119.42139,Q15350
343,56521,Kabupaten Mamuju Tengah,1817,SR,Sulawesi Barat,102,ID,Indonesia,-2.8212,119.2662,Q12488349
344,56854,Majene,1817,SR,Sulawesi Barat,102,ID,Indonesia,-3.5403,118.9707,Q11017
345,56212,Baturaja,1816,SS,Sumatera Selatan,102,ID,Indonesia,-4.12891,104.16695,Q11434
346,56550,Kabupaten Musi Rawas Utara,1816,SS,Sumatera Selatan,102,ID,Indonesia,-2.48533,103.29346,Q18511812
347,56589,Kabupaten Penukal Abab Lematang Ilir,1816,SS,Sumatera Selatan,102,ID,Indonesia,-3.21342,104.08722,Q15729116
348,56402,Kabupaten Empat Lawang,1816,SS,Sumatera Selatan,102,ID,Indonesia,3.22667,99.09256,Q8112
349,56565,Kabupaten Ogan Komering Ulu,1816,SS,Sumatera Selatan,102,ID,Indonesia,-4.13333,104.03333,Q8126
350,56898,Palembang,1816,SS,Sumatera Selatan,102,ID,Indonesia,-2.91673,104.7458,Q8131
351,56548,Kabupaten Musi Banyuasin,1816,SS,Sumatera Selatan,102,ID,Indonesia,-2.41667,103.75,Q8107
352,56834,Lahat Regency,1816,SS,Sumatera Selatan,102,ID,Indonesia,-3.7864,103.5428,Q8117
353,56895,Pagar Alam,1816,SS,Sumatera Selatan,102,ID,Indonesia,-4.02506,103.24694,Q8130
354,56939,Prabumulih,1816,SS,Sumatera Selatan,102,ID,Indonesia,-3.43447,104.23056,Q8133
355,139638,Luco dei Marsi,1679,65,Abruzzo,107,IT,Italy,41.95925,13.47349,Q18426793
356,62026,Villa Santa Maria,1679,65,Abruzzo,107,IT,Italy,41.9513,14.35148,Q18427125
357,61334,Tornareccio,1679,65,Abruzzo,107,IT,Italy,42.03763,14.41525,Q18288162
358,59033,Pratola Peligna,1679,65,Abruzzo,107,IT,Italy,42.09701,13.87467,Q18453863
359,139538,Liscia,1679,65,Abruzzo,107,IT,Italy,41.95524,14.55532,Q3833372
360,60072,San Martino Bassa,1679,65,Abruzzo,107,IT,Italy,42.51827,14.13045,Q18427498
361,60857,Silvi,1679,65,Abruzzo,107,IT,Italy,42.54984,14.11759,Q3828428
362,58727,Pizzoferrato,1679,65,Abruzzo,107,IT,Italy,41.92244,14.23632,Q18438575
363,60203,San Pio delle Camere,1679,65,Abruzzo,107,IT,Italy,42.28423,13.6557,Q2184285
364,140731,Navelli,1679,65,Abruzzo,107,IT,Italy,42.23721,13.72961,Q18487717
365,140307,Montagano,1695,67,Molise,107,IT,Italy,41.64538,14.67405,Q1985002
366,59845,San Biase,1695,67,Molise,107,IT,Italy,41.71526,14.59049,Q18496109
367,137576,Cerro al Volturno,1695,67,Molise,107,IT,Italy,41.65418,14.10321,Q18427252
368,139233,Isernia,1695,67,Molise,107,IT,Italy,41.59603,14.23399,Q18436956
369,59138,Provincia di Isernia,1695,67,Molise,107,IT,Italy,41.66667,14.25,Q16187
370,61608,Ururi,1695,67,Molise,107,IT,Italy,41.81518,15.01611,Q547157
371,58462,Pescolanciano,1695,67,Molise,107,IT,Italy,41.67972,14.33658,Q2784233
372,60093,San Martino in Pensilis,1695,67,Molise,107,IT,Italy,41.87814,15.01824,Q18489075
373,61339,Toro,1695,67,Molise,107,IT,Italy,41.57313,14.76183,Q18288162
374,136662,Campolieto,1695,67,Molise,107,IT,Italy,41.63336,14.76694,Q16536116
375,136591,Camino al Tagliamento,1756,36,Friuli–Venezia Giulia,107,IT,Italy,45.92767,12.94489,Q18453662
376,140022,Mediis,1756,36,Friuli–Venezia Giulia,107,IT,Italy,46.40336,12.82341,Q3853796
377,138432,Fanna,1756,36,Friuli–Venezia Giulia,107,IT,Italy,46.18455,12.75161,Q18504625
378,140637,Morsano,1756,36,Friuli–Venezia Giulia,107,IT,Italy,45.85969,12.92769,Q18448944
379,59725,Sagrado,1756,36,Friuli–Venezia Giulia,107,IT,Italy,45.87393,13.48418,Q18496925
380,141056,Ovaro,1756,36,Friuli–Venezia Giulia,107,IT,Italy,46.48409,12.86704,Q3887155
381,60188,San Pietro al Natisone,1756,36,Friuli–Venezia Giulia,107,IT,Italy,46.11444,13.48296,Q18506872
382,137527,Cercivento,1756,36,Friuli–Venezia Giulia,107,IT,Italy,46.52745,12.99219,Q18492542
383,58910,Porpetto,1756,36,Friuli–Venezia Giulia,107,IT,Italy,45.857,13.21703,Q18439580
384,61487,Treppo Carnico,1756,36,Friuli–Venezia Giulia,107,IT,Italy,46.53323,13.04292,Q18499018
385,139283,Jovencan,1716,23,Aosta Valley,107,IT,Italy,45.71486,7.2726,Q1118172
386,137841,Cogne,1716,23,Aosta Valley,107,IT,Italy,45.60742,7.35803,Q30024888
387,58293,Paquier,1716,23,Aosta Valley,107,IT,Italy,45.87879,7.62575,Q18495750
388,62147,Ville Sur Sarre,1716,23,Aosta Valley,107,IT,Italy,45.73339,7.25857,Q18496041
389,135416,Allein,1716,23,Aosta Valley,107,IT,Italy,45.80723,7.27262,Q18454404
390,138355,Emarese,1716,23,Aosta Valley,107,IT,Italy,45.72489,7.68976,Q18503084
391,139264,Issogne,1716,23,Aosta Valley,107,IT,Italy,45.65496,7.68571,Q18457884
392,59350,Rhemes-Notre-Dame,1716,23,Aosta Valley,107,IT,Italy,45.56965,7.1187,Q2613596
393,135997,Berriat,1716,23,Aosta Valley,107,IT,Italy,45.70729,7.67617,Q18495191
394,139303,La Salle,1716,23,Aosta Valley,107,IT,Italy,45.74497,7.07295,Q18439398
395,135403,Alfonsine,1707,RA,Ravenna,107,IT,Italy,44.50768,12.03743,Q18454404
396,135748,Bagnacavallo,1707,RA,Ravenna,107,IT,Italy,44.41402,11.97813,Q18440466
397,138111,Cotignola,1707,RA,Ravenna,107,IT,Italy,44.38572,11.93852,Q18439136
398,137131,Castel Bolognese,1707,RA,Ravenna,107,IT,Italy,44.31981,11.79903,Q2580352
399,136341,Brisighella,1707,RA,Ravenna,107,IT,Italy,44.22228,11.77358,Q18505077
400,59299,Ravenna,1707,RA,Ravenna,107,IT,Italy,44.41344,12.20121,Q18449036
401,60326,Sant'Agata sul Santerno,1707,RA,Ravenna,107,IT,Italy,44.44351,11.86112,Q1860399
402,59704,Russi,1707,RA,Ravenna,107,IT,Italy,44.37645,12.03335,Q18482526
403,139648,Lugo,1707,RA,Ravenna,107,IT,Italy,44.42137,11.91094,Q30026767
404,135750,Bagnara di Romagna,1707,RA,Ravenna,107,IT,Italy,44.3893,11.82726,Q18440466
405,63389,Gojō,824,29,Nara Prefecture,109,JP,Japan,34.35,135.7,Q847572
406,64577,Uda Shi,824,29,Nara Prefecture,109,JP,Japan,34.52035,135.99787,Q468765
407,64483,Tenri,824,29,Nara Prefecture,109,JP,Japan,34.58333,135.83333,Q502196
408,63390,Gojō-shi,824,29,Nara Prefecture,109,JP,Japan,34.35081,135.69489,Q602571
409,63735,Kashihara-shi,824,29,Nara Prefecture,109,JP,Japan,34.50352,135.78986,Q496319
410,63558,Ikoma,824,29,Nara Prefecture,109,JP,Japan,34.68333,135.7,Q328610
411,64106,Nara-shi,824,29,Nara Prefecture,109,JP,Japan,34.68506,135.80485,Q169134
412,63415,Haibara-akanedai,824,29,Nara Prefecture,109,JP,Japan,34.53333,135.95,Q378225
413,64645,Yamatokōriyama-shi,824,29,Nara Prefecture,109,JP,Japan,34.64917,135.78278,Q118213
414,64484,Tenri-shi,824,29,Nara Prefecture,109,JP,Japan,34.59619,135.83736,Q502196
415,63245,Anan Shi,836,36,Tokushima Prefecture,109,JP,Japan,33.87716,134.60644,Q485583
416,63274,Awa-shi,836,36,Tokushima Prefecture,109,JP,Japan,34.1,134.25,Q791587
417,63761,Katsuura Gun,836,36,Tokushima Prefecture,109,JP,Japan,33.9138,134.42641,Q974969
418,64618,Wakimachi,836,36,Tokushima Prefecture,109,JP,Japan,34.06667,134.15,Q200747
419,64110,Naruto-shi,836,36,Tokushima Prefecture,109,JP,Japan,34.17881,134.61357,Q460812
420,64498,Tokushima Shi,836,36,Tokushima Prefecture,109,JP,Japan,34.04922,134.52359,Q207309
421,63956,Mima Shi,836,36,Tokushima Prefecture,109,JP,Japan,34.01889,134.14333,Q857828
422,64497,Tokushima,836,36,Tokushima Prefecture,109,JP,Japan,34.06667,134.56667,Q165857
423,63556,Ikedachō,836,36,Tokushima Prefecture,109,JP,Japan,34.02849,133.80616,Q626473
424,64015,Miyoshi Shi,836,36,Tokushima Prefecture,109,JP,Japan,33.93349,133.85184,Q990371
425,63362,Fukuechō,849,42,Nagasaki Prefecture,109,JP,Japan,32.69732,128.84561,Q3355306
426,64743,Ōmura,849,42,Nagasaki Prefecture,109,JP,Japan,32.92139,129.95389,Q385461
427,63940,Matsuura Shi,849,42,Nagasaki Prefecture,109,JP,Japan,33.35334,129.73504,Q850465
428,63397,Gotō Shi,849,42,Nagasaki Prefecture,109,JP,Japan,32.69892,128.76871,Q201659
429,64247,Saikai-shi,849,42,Nagasaki Prefecture,109,JP,Japan,32.99259,129.682,Q520267
430,63581,Isahaya,849,42,Nagasaki Prefecture,109,JP,Japan,32.84111,130.04306,Q596469
431,64561,Tsushima Shi,849,42,Nagasaki Prefecture,109,JP,Japan,34.40845,129.32599,Q734416
432,64072,Nagasaki-shi,849,42,Nagasaki Prefecture,109,JP,Japan,32.78206,129.82715,Q38234
433,63488,Hirado Shi,849,42,Nagasaki Prefecture,109,JP,Japan,33.31596,129.48688,Q328601
434,63557,Iki Shi,849,42,Nagasaki Prefecture,109,JP,Japan,33.78554,129.7167,Q861519
435,63255,Arida Shi,844,30,Wakayama Prefecture,109,JP,Japan,34.07937,135.1423,Q657843
436,63388,Gobō,844,30,Wakayama Prefecture,109,JP,Japan,33.88153,135.1696,Q847572
437,63619,Iwade Shi,844,30,Wakayama Prefecture,109,JP,Japan,34.28089,135.3056,Q579623
438,64616,Wakayama,844,30,Wakayama Prefecture,109,JP,Japan,34.23333,135.16667,Q823896
439,64464,Tanabe-shi,844,30,Wakayama Prefecture,109,JP,Japan,33.82731,135.57786,Q304266
440,64339,Shingū,844,30,Wakayama Prefecture,109,JP,Japan,33.73333,135.98333,Q823526
441,63788,Kinokawa Shi,844,30,Wakayama Prefecture,109,JP,Japan,34.254,135.39412,Q697002
442,63904,Kōya,844,30,Wakayama Prefecture,109,JP,Japan,34.21294,135.62244,Q1346907
443,63444,Hashimoto,844,30,Wakayama Prefecture,109,JP,Japan,34.31667,135.61667,Q842098
444,64617,Wakayama Shi,844,30,Wakayama Prefecture,109,JP,Japan,34.24252,135.19595,Q200747
445,63328,Ebino-shi,855,45,Miyazaki Prefecture,109,JP,Japan,32.01667,130.8,Q374701
446,63527,Hyūga-shi,855,45,Miyazaki Prefecture,109,JP,Japan,32.3771,131.52275,Q850388
447,63885,Kushima Shi,855,45,Miyazaki Prefecture,109,JP,Japan,31.48571,131.26485,Q845800
448,64429,Takanabe,855,45,Miyazaki Prefecture,109,JP,Japan,32.13333,131.5,Q200707
449,64126,Nichinan Shi,855,45,Miyazaki Prefecture,109,JP,Japan,31.63737,131.33409,Q860669
450,64252,Saito-shi,855,45,Miyazaki Prefecture,109,JP,Japan,32.17288,131.31543,Q850479
451,64009,Miyazaki,855,45,Miyazaki Prefecture,109,JP,Japan,31.91667,131.41667,Q990431
452,64160,Nobeoka-shi,855,45,Miyazaki Prefecture,109,JP,Japan,32.67238,131.64311,Q653389
453,63818,Kobayashi,855,45,Miyazaki Prefecture,109,JP,Japan,31.98333,130.98333,Q861283
454,64010,Miyazaki-shi,855,45,Miyazaki Prefecture,109,JP,Japan,31.96192,131.38455,Q204308
455,71551,Laguna de Farfán,3464,VER,Veracruz de Ignacio de la Llave,142,MX,Mexico,19.80327,-96.64386,Q20227219
456,70487,Fredepo,3464,VER,Veracruz de Ignacio de la Llave,142,MX,Mexico,18.88056,-96.97694,Q20140119
457,76256,Zacamixtle,3464,VER,Veracruz de Ignacio de la Llave,142,MX,Mexico,21.24762,-97.72155,Q20274187
458,69908,El Cocuite,3464,VER,Veracruz de Ignacio de la Llave,142,MX,Mexico,18.71765,-96.08442,Q20206482
459,71328,La Isla de Chapachapa,3464,VER,Veracruz de Ignacio de la Llave,142,MX,Mexico,20.12186,-96.88208,Q20251261
460,74214,San Miguel Tlalpoalán,3464,VER,Veracruz de Ignacio de la Llave,142,MX,Mexico,19.73981,-97.22662,Q20147236
461,76298,Zapoapan,3464,VER,Veracruz de Ignacio de la Llave,142,MX,Mexico,18.84018,-96.99297,Q20210970
462,69390,Colonia el Renacimiento,3464,VER,Veracruz de Ignacio de la Llave,142,MX,Mexico,19.21889,-96.21639,Q20221959
463,68685,Buenos Aires,3464,VER,Veracruz de Ignacio de la Llave,142,MX,Mexico,18.46463,-95.24879,Q20229054
464,70125,El Potrero,3464,VER,Veracruz de Ignacio de la Llave,142,MX,Mexico,18.67822,-97.25499,Q20254039
465,72951,Pueblo Viejo,3474,MIC,Michoacán de Ocampo,142,MX,Mexico,19.77638,-100.81474,Q20239645
466,71398,La Mira Tumbiscatio,3474,MIC,Michoacán de Ocampo,142,MX,Mexico,18.68333,-102.28333,Q20292488
467,69213,Coahuayana de Hidalgo,3474,MIC,Michoacán de Ocampo,142,MX,Mexico,18.70224,-103.66145,Q958809
468,73533,San Felipe los Alzati (Colonia Nueva),3474,MIC,Michoacán de Ocampo,142,MX,Mexico,19.48972,-100.37389,Q20288825
469,69212,Coahuayana Viejo,3474,MIC,Michoacán de Ocampo,142,MX,Mexico,18.75119,-103.66798,Q20236384
470,75902,Uspero,3474,MIC,Michoacán de Ocampo,142,MX,Mexico,19.01421,-102.26907,Q20291435
471,74937,Santiago Puriatzícuaro,3474,MIC,Michoacán de Ocampo,142,MX,Mexico,19.88306,-100.58861,Q20283858
472,74577,Santa Catarina,3474,MIC,Michoacán de Ocampo,142,MX,Mexico,19.29033,-102.39845,Q20209733
473,72762,Pichátaro,3474,MIC,Michoacán de Ocampo,142,MX,Mexico,19.57289,-101.80737,Q20289295
474,70420,Fraccionamiento Ex-Hacienda el Refugio,3474,MIC,Michoacán de Ocampo,142,MX,Mexico,19.95083,-102.25639,Q20238845
475,71230,La Concepción,3449,SIN,Sinaloa,142,MX,Mexico,23.3945,-106.1689,Q20287965
476,71580,Las Brisas,3449,SIN,Sinaloa,142,MX,Mexico,25.49022,-108.24587,Q6492075
477,70254,El Verde,3449,SIN,Sinaloa,142,MX,Mexico,23.36461,-106.13514,Q20281331
478,72733,Pericos,3449,SIN,Sinaloa,142,MX,Mexico,25.08093,-107.69966,Q27782748
479,68490,Bachomobampo Número Dos,3449,SIN,Sinaloa,142,MX,Mexico,25.73888,-109.14776,Q20274666
480,70615,Guamúchil,3449,SIN,Sinaloa,142,MX,Mexico,25.4587,-108.07732,Q1552698
481,72282,Naranjo,3449,SIN,Sinaloa,142,MX,Mexico,25.80633,-108.48127,Q3891309
482,75096,Siqueros,3449,SIN,Sinaloa,142,MX,Mexico,23.34177,-106.24124,Q20260716
483,69979,El Habal,3449,SIN,Sinaloa,142,MX,Mexico,23.35014,-106.41834,Q20279358
484,71458,La Presita,3449,SIN,Sinaloa,142,MX,Mexico,25.70734,-108.58523,Q20132913
485,71648,Las Varas,3477,NAY,Nayarit,142,MX,Mexico,21.18021,-105.13595,Q6492494
486,73870,San Juan Bautista,3477,NAY,Nayarit,142,MX,Mexico,22.14359,-105.0975,Q7414557
487,68321,Aquiles Serdán,3477,NAY,Nayarit,142,MX,Mexico,21.38198,-104.88891,Q20227607
488,71200,La Cantera,3477,NAY,Nayarit,142,MX,Mexico,21.50308,-104.82237,Q20264226
489,70022,El Llano,3477,NAY,Nayarit,142,MX,Mexico,21.41854,-105.17963,Q20242016
490,76313,Zapotán,3477,NAY,Nayarit,142,MX,Mexico,21.08936,-104.86246,Q6170952
491,72295,Navarrete,3477,NAY,Nayarit,142,MX,Mexico,21.64841,-105.11539,Q6981573
492,68756,Camalotita,3477,NAY,Nayarit,142,MX,Mexico,22.40453,-105.43156,Q2656541
493,73958,San Juan de Abajo,3477,NAY,Nayarit,142,MX,Mexico,20.81484,-105.19154,Q20264084
494,72624,Pantanal,3477,NAY,Nayarit,142,MX,Mexico,21.42824,-104.86122,Q173191
495,69653,Cuyutlán,3472,COL,Colima,142,MX,Mexico,18.91937,-104.06873,Q608391
496,70942,Ixtlahuacán,3472,COL,Colima,142,MX,Mexico,19.00119,-103.73638,Q993343
497,72933,Pueblo Juárez (La Magdalena),3472,COL,Colima,142,MX,Mexico,19.16722,-103.93111,Q20297251
498,72787,Piscila,3472,COL,Colima,142,MX,Mexico,19.15889,-103.70105,Q20271456
499,69247,Cofradía,3472,COL,Colima,142,MX,Mexico,19.43333,-103.55,Q20237591
500,153374,Manzanillo,3472,COL,Colima,142,MX,Mexico,19.1136,-104.346,Q1739462
501,71212,La Central,3472,COL,Colima,142,MX,Mexico,19.14276,-104.43819,Q20264429
502,69416,Comala,3472,COL,Colima,142,MX,Mexico,19.32717,-103.75926,Q1113251
503,75959,Venustiano Carranza,3472,COL,Colima,142,MX,Mexico,19.01112,-104.11033,Q20232721
504,69248,Cofradía de Juárez,3472,COL,Colima,142,MX,Mexico,18.96261,-103.95549,Q20237591
505,78837,Veenendaal,2610,UT,Utrecht,156,NL,Netherlands,52.02863,5.55891,Q14212973
506,78925,Werkhoven,2610,UT,Utrecht,156,NL,Netherlands,52.025,5.24444,Q2541237
507,77314,Abcoude,2610,UT,Utrecht,156,NL,Netherlands,52.2725,4.96944,Q969
508,78954,Wijk bij Duurstede,2610,UT,Utrecht,156,NL,Netherlands,51.97417,5.34167,Q913649
509,77368,Baarn,2610,UT,Utrecht,156,NL,Netherlands,52.21167,5.2875,Q33423050
510,78758,Stichtse Vecht,2610,UT,Utrecht,156,NL,Netherlands,52.17679,5.01259,Q10042
511,78058,Groenekan,2610,UT,Utrecht,156,NL,Netherlands,52.12333,5.15278,Q2218565
512,77542,De Hagen,2610,UT,Utrecht,156,NL,Netherlands,51.99381,5.10263,Q2993272
513,78294,Leusden,2610,UT,Utrecht,156,NL,Netherlands,52.1325,5.43194,Q33456707
514,78973,Woerden,2610,UT,Utrecht,156,NL,Netherlands,52.085,4.88333,Q494324
515,78795,Tuk,2618,OV,Overijssel,156,NL,Netherlands,52.79667,6.09444,Q2428342
516,78952,Wijhe,2618,OV,Overijssel,156,NL,Netherlands,52.38667,6.13472,Q3164650
517,77326,Almelo,2618,OV,Overijssel,156,NL,Netherlands,52.35667,6.6625,Q33421017
518,78604,Raalte,2618,OV,Overijssel,156,NL,Netherlands,52.38583,6.275,Q18012068
519,77459,Borne,2618,OV,Overijssel,156,NL,Netherlands,52.30136,6.7482,Q502343
520,78980,Woolde,2618,OV,Overijssel,156,NL,Netherlands,52.2721,6.75891,Q3112153
521,77679,Frankhuis,2618,OV,Overijssel,156,NL,Netherlands,52.525,6.06806,Q41974
522,77576,Deventer,2618,OV,Overijssel,156,NL,Netherlands,52.255,6.16389,Q26296883
523,79036,Zwolle,2618,OV,Overijssel,156,NL,Netherlands,52.5125,6.09444,Q13189044
524,78323,Losser,2618,OV,Overijssel,156,NL,Netherlands,52.26083,7.00417,Q2184767
525,150051,Dorp Tera Kora,2624,BQ1,Bonaire,156,NL,Netherlands,12.13333,-68.26667,Q9357153
526,150055,The Bottom,2624,BQ1,Bonaire,156,NL,Netherlands,17.62611111,-63.24916667,Q475718
527,150050,Boven Bolivia,2624,BQ1,Bonaire,156,NL,Netherlands,12.1819,-68.2181,Q4950521
528,150057,Zion's Hill,2624,BQ1,Bonaire,156,NL,Netherlands,17.643,-63.22649,Q2511504
529,150052,Oranjestad,2624,BQ1,Bonaire,156,NL,Netherlands,17.48333333,-62.98333333,Q217610
530,150054,St. Johns,2624,BQ1,Bonaire,156,NL,Netherlands,17.6210075,-63.2431683,Q2699576
531,150053,Rincon,2624,BQ1,Bonaire,156,NL,Netherlands,12.23833333,-68.3325,Q2033101
532,150056,Windwardside,2624,BQ1,Bonaire,156,NL,Netherlands,17.62864,-63.23136,Q2983401
533,78655,Schagen,2612,NH,North Holland,156,NL,Netherlands,52.7875,4.79861,Q9955
534,149900,Graft,2612,NH,North Holland,156,NL,Netherlands,52.5608,4.8339,Q2212600
535,150030,Wateringskant,2612,NH,North Holland,156,NL,Netherlands,52.76111111,4.87361111,Q2709680
536,78702,Sint Pancras,2612,NH,North Holland,156,NL,Netherlands,52.66,4.78333,Q2282220
537,149932,Krabbendam,2612,NH,North Holland,156,NL,Netherlands,52.7322,4.7025,Q2437996
538,78094,Harenkarspel,2612,NH,North Holland,156,NL,Netherlands,52.73416,4.77682,Q9925
539,149951,Nieuw-Vennep,2612,NH,North Holland,156,NL,Netherlands,52.2639,4.6375,Q545457
540,78526,Oosthuizen,2612,NH,North Holland,156,NL,Netherlands,52.5725,4.99583,Q2504814
541,150009,Stroe,2612,NH,North Holland,156,NL,Netherlands,52.93333333,4.98333333,Q2286155
542,149921,Jisp,2612,NH,North Holland,156,NL,Netherlands,52.5067,4.8489,Q1946750
543,78276,Leek,2617,GR,Groningen,156,NL,Netherlands,53.1625,6.37639,Q26212170
544,77318,Aduard,2617,GR,Groningen,156,NL,Netherlands,53.25667,6.45972,Q612259
545,78063,Groningen,2617,GR,Groningen,156,NL,Netherlands,53.21917,6.56667,Q749
546,78278,Leens,2617,GR,Groningen,156,NL,Netherlands,53.36,6.37917,Q2377601
547,77943,Gemeente Stadskanaal,2617,GR,Groningen,156,NL,Netherlands,53.00005,6.98906,Q73074
548,78182,Hoogezand,2617,GR,Groningen,156,NL,Netherlands,53.16167,6.76111,Q1627411
549,77635,Eexta,2617,GR,Groningen,156,NL,Netherlands,53.16386,6.98344,Q284660
550,78904,Warffum,2617,GR,Groningen,156,NL,Netherlands,53.3925,6.55833,Q1942428
551,77398,Bellingwolde,2617,GR,Groningen,156,NL,Netherlands,53.11583,7.16528,Q2181173
552,77712,Gemeente Appingedam,2617,GR,Groningen,156,NL,Netherlands,53.31926,6.84864,Q995
553,153472,Hougang,4649,2,North East,199,SG,Singapore,1.3736,103.8867,Q215976
554,153473,Serangoon,4649,2,North East,199,SG,Singapore,1.3496,103.8737,Q222710
555,153474,Punggol,4649,2,North East,199,SG,Singapore,1.4051,103.9023,Q217117
556,153475,Ang Mo Kio,4649,2,North East,199,SG,Singapore,1.3698,103.8461,Q213899
557,153471,Sengkang,4649,2,North East,199,SG,Singapore,1.3901,103.8952,Q259678
558,153481,Bukit Batok,4652,3,South West,199,SG,Singapore,1.3496,103.7528,Q225021
559,153482,Bukit Panjang,4652,3,South West,199,SG,Singapore,1.3786,103.7626,Q199242
560,153480,Jurong West,4652,3,South West,199,SG,Singapore,1.3396,103.7073,Q190717
561,153476,Sembawang,4653,3,North West,199,SG,Singapore,1.4491,103.8201,Q1531283
562,104058,Woodlands,4653,3,North West,199,SG,Singapore,1.43801,103.78877,Q334
563,153470,Yishun,4653,3,North West,199,SG,Singapore,1.4293,103.8355,Q199051
564,153460,Tanjong Pagar,4651,1,Central Singapore,199,SG,Singapore,1.2764,103.8434,Q171064
565,104057,Singapore,4651,1,Central Singapore,199,SG,Singapore,1.28967,103.85007,Q191698
566,153462,Bukit Timah,4651,1,Central Singapore,199,SG,Singapore,1.3294,103.8021,Q161409
567,153465,Rochor,4651,1,Central Singapore,199,SG,Singapore,1.3049,103.852,Q153208
568,153461,Novena,4651,1,Central Singapore,199,SG,Singapore,1.3201,103.8439,Q165441
569,153463,Geylang,4651,1,Central Singapore,199,SG,Singapore,1.3182,103.8871,Q160823
570,153466,Downtown Core,4651,1,Central Singapore,199,SG,Singapore,1.278,103.852,Q149267
571,153469,Toa Payoh,4651,1,Central Singapore,199,SG,Singapore,1.3354,103.8497,Q149252
572,153459,Marine Parade,4651,1,Central Singapore,199,SG,Singapore,1.303,103.9072,Q185477
573,153468,Outram,4651,1,Central Singapore,199,SG,Singapore,1.2819,103.839,Q149257
574,153478,Bedok,4650,3,South East,199,SG,Singapore,1.3236,103.9273,Q239092
575,153479,Pasir Ris,4650,3,South East,199,SG,Singapore,1.3739,103.9493,Q230274
576,153477,Tampines,4650,3,South East,199,SG,Singapore,1.3547,103.9437,Q191699
577,131137,John Taolo Gaetsewe District Municipality,931,NC,Northern Cape,204,ZA,South Africa,-27.04549,23.04706,Q384731
578,131281,Upington,931,NC,Northern Cape,204,ZA,South Africa,-28.44776,21.25612,Q575780
579,131112,Fraserburg,931,NC,Northern Cape,204,ZA,South Africa,-31.91566,21.51335,Q2609896
580,131231,Prieska,931,NC,Northern Cape,204,ZA,South Africa,-29.66803,22.74251,Q1021731
581,131029,Barkly West,931,NC,Northern Cape,204,ZA,South Africa,-28.53537,24.52151,Q808304
582,131140,Kimberley,931,NC,Northern Cape,204,ZA,South Africa,-28.73226,24.76232,Q125905
583,131213,Pampierstad,931,NC,Northern Cape,204,ZA,South Africa,-27.78324,24.68768,Q68597
584,131241,Ritchie,931,NC,Northern Cape,204,ZA,South Africa,-29.03801,24.60278,Q2152772
585,131139,Kenhardt,931,NC,Northern Cape,204,ZA,South Africa,-29.34574,21.15786,Q3643099
586,131153,Kuruman,931,NC,Northern Cape,204,ZA,South Africa,-27.4524,23.43246,Q1025965
587,131237,Reitz,932,FS,Free State,204,ZA,South Africa,-27.80138,28.42726,Q2208947
588,131131,Hoopstad,932,FS,Free State,204,ZA,South Africa,-27.83273,25.90833,Q1993670
589,131107,Fezile Dabi District Municipality,932,FS,Free State,204,ZA,South Africa,-27.33918,27.71927,Q1410315
590,131249,Sasolburg,932,FS,Free State,204,ZA,South Africa,-26.81358,27.81695,Q963786
591,131044,Botshabelo,932,FS,Free State,204,ZA,South Africa,-29.26737,26.72595,Q894856
592,131315,Zastron,932,FS,Free State,204,ZA,South Africa,-30.30225,27.08395,Q148289
593,131163,Lindley,932,FS,Free State,204,ZA,South Africa,-27.8791,27.91348,Q3642967
594,131314,Xhariep District Municipality,932,FS,Free State,204,ZA,South Africa,-29.84311,25.83286,Q2006764
595,131274,Theunissen,932,FS,Free State,204,ZA,South Africa,-28.41098,26.70107,Q2842892
596,131075,Clocolan,932,FS,Free State,204,ZA,South Africa,-28.91367,27.56555,Q1102116
597,131099,Ehlanzeni District,937,MP,Mpumalanga,204,ZA,South Africa,-25.351,31.361,Q1244497
598,131175,Middelburg,937,MP,Mpumalanga,204,ZA,South Africa,-25.77507,29.46482,Q1931836
599,131026,Balfour,937,MP,Mpumalanga,204,ZA,South Africa,-26.66331,28.59016,Q2188373
600,131307,White River,937,MP,Mpumalanga,204,ZA,South Africa,-25.33177,31.01166,Q2046203
601,131116,Gert Sibande District Municipality,937,MP,Mpumalanga,204,ZA,South Africa,-26.671,29.92953,Q1515346
602,131319,eMbalenhle,937,MP,Mpumalanga,204,ZA,South Africa,-26.53333,29.06667,Q2522086
603,131145,Komatipoort,937,MP,Mpumalanga,204,ZA,South Africa,-25.43321,31.95478,Q1779827
604,131028,Barberton,937,MP,Mpumalanga,204,ZA,South Africa,-25.78842,31.05319,Q807828
605,131291,Volksrust,937,MP,Mpumalanga,204,ZA,South Africa,-27.36541,29.88175,Q118638
606,131064,Carolina,937,MP,Mpumalanga,204,ZA,South Africa,-26.06927,30.11489,Q2119900
607,131259,Somerset East,938,EC,Eastern Cape,204,ZA,South Africa,-32.72173,25.58804,Q1021900
608,131308,Whittlesea,938,EC,Eastern Cape,204,ZA,South Africa,-32.17588,26.82437,Q1027839
609,131023,Amathole District Municipality,938,EC,Eastern Cape,204,ZA,South Africa,-32.55895,27.45919,Q455705
610,131093,East London,938,EC,Eastern Cape,204,ZA,South Africa,-33.01529,27.91162,Q209537
611,131226,Port Saint John’s,938,EC,Eastern Cape,204,ZA,South Africa,-31.62291,29.54477,Q2604557
612,131197,Nelson Mandela Bay Metropolitan Municipality,938,EC,Eastern Cape,204,ZA,South Africa,-33.80399,25.49213,Q1856565
613,131052,Buffalo City Metropolitan Municipality,938,EC,Eastern Cape,204,ZA,South Africa,-32.95141,27.61164,Q1002006
614,131206,OR Tambo District Municipality,938,EC,Eastern Cape,204,ZA,South Africa,-31.4674,29.05247,Q2007299
615,131182,Molteno,938,EC,Eastern Cape,204,ZA,South Africa,-31.39675,26.36246,Q1003348
616,131109,Fort Beaufort,938,EC,Eastern Cape,204,ZA,South Africa,-32.77477,26.63376,Q473216
617,131120,Grabouw,939,WC,Western Cape,204,ZA,South Africa,-34.15152,19.01509,Q1540958
618,131246,Rosebank,939,WC,Western Cape,204,ZA,South Africa,-33.95556,18.47417,Q7368057
619,131295,Vredendal,939,WC,Western Cape,204,ZA,South Africa,-31.66833,18.50119,Q1341350
620,131070,City of Cape Town,939,WC,Western Cape,204,ZA,South Africa,-33.91667,18.41667,Q1185115
621,131264,Stellenbosch,939,WC,Western Cape,204,ZA,South Africa,-33.93462,18.86676,Q5460
622,131048,Bredasdorp,939,WC,Western Cape,204,ZA,South Africa,-34.53215,20.04031,Q1640898
623,131095,Eden District Municipality,939,WC,Western Cape,204,ZA,South Africa,-33.82139,22.01263,Q220249
624,131313,Worcester,939,WC,Western Cape,204,ZA,South Africa,-33.64651,19.44852,Q1025649
625,131030,Beaufort West,939,WC,Western Cape,204,ZA,South Africa,-32.35671,22.58295,Q813395
626,131211,Overberg District Municipality,939,WC,Western Cape,204,ZA,South Africa,-34.26131,19.93985,Q1899307
627,65452,Nam-gu,3860,26,Busan,116,KR,South Korea,35.13648,129.08266,Q50363
628,65482,Sasang-gu,3860,26,Busan,116,KR,South Korea,35.14479,128.97986,Q50398
629,65276,Buk-gu,3860,26,Busan,116,KR,South Korea,35.19724,128.99134,Q50394
630,65513,Suyeong-gu,3860,26,Busan,116,KR,South Korea,35.15627,129.11253,Q50417
631,65333,Gijang,3860,26,Busan,116,KR,South Korea,35.24417,129.21389,Q50216
632,65421,Jung-gu,3860,26,Busan,116,KR,South Korea,35.10594,129.03331,Q50440
633,65313,Dongnae-gu,3860,26,Busan,116,KR,South Korea,35.20447,129.078,Q50383
634,65278,Busan,3860,26,Busan,116,KR,South Korea,35.10168,129.03004,Q16520
635,65552,Yeongdo-gu,3860,26,Busan,116,KR,South Korea,35.07849,129.06483,Q50423
636,65331,Geumjeong-gu,3860,26,Busan,116,KR,South Korea,35.25863,129.0901,Q50358
637,65302,Dalseo-gu,3846,27,Daegu,116,KR,South Korea,35.82569,128.52403,Q50370
638,65422,Jung-gu,3846,27,Daegu,116,KR,South Korea,35.86678,128.59538,Q50438
639,65300,Daegu,3846,27,Daegu,116,KR,South Korea,35.87028,128.59111,Q42148
640,65511,Suseong-gu,3846,27,Daegu,116,KR,South Korea,35.85905,128.62625,Q50416
641,65303,Dalseong-gun,3846,27,Daegu,116,KR,South Korea,35.77467,128.42955,Q50239
642,65394,Hwawŏn,3846,27,Daegu,116,KR,South Korea,35.80167,128.50083,Q42160
643,65307,Dong-gu,3846,27,Daegu,116,KR,South Korea,35.88566,128.63296,Q50376
644,65485,Seo-gu,3846,27,Daegu,116,KR,South Korea,35.87465,128.55109,Q50404
645,65539,Yangju-si,3847,41,Gyeonggi Province,116,KR,South Korea,37.81732,127.046,Q42124
646,65465,Osan,3847,41,Gyeonggi Province,116,KR,South Korea,37.15222,127.07056,Q42129
647,65466,Osan-si,3847,41,Gyeonggi Province,116,KR,South Korea,37.1623,127.05246,Q42129
648,65538,Yangju,3847,41,Gyeonggi Province,116,KR,South Korea,37.83311,127.06169,Q42124
649,65523,Uiwang-si,3847,41,Gyeonggi Province,116,KR,South Korea,37.345,126.97575,Q42134
650,65541,Yangpyeong-gun,3847,41,Gyeonggi Province,116,KR,South Korea,37.4888,127.49222,Q50255
651,65310,Dongducheon,3847,41,Gyeonggi Province,116,KR,South Korea,37.91889,127.06897,Q50382
652,65363,Gwangju,3847,41,Gyeonggi Province,116,KR,South Korea,37.41,127.25722,Q42069
653,65350,Goyang-si,3847,41,Gyeonggi Province,116,KR,South Korea,37.65639,126.835,Q42061
654,65274,Bucheon-si,3847,41,Gyeonggi Province,116,KR,South Korea,37.5044,126.76625,Q42099
655,65501,Sinan-gun,3856,46,South Jeolla Province,116,KR,South Korea,34.83107,126.09872,Q50252
656,65393,Hwasun-gun,3856,46,South Jeolla Province,116,KR,South Korea,35.00468,127.02648,Q42160
657,65451,Naju-si,3856,46,South Jeolla Province,116,KR,South Korea,35.05683,126.67362,Q42083
658,65443,Muan,3856,46,South Jeolla Province,116,KR,South Korea,34.99014,126.47899,Q42094
659,65403,Jangseong-gun,3856,46,South Jeolla Province,116,KR,South Korea,35.32734,126.76817,Q50322
660,65531,Wando-gun,3856,46,South Jeolla Province,116,KR,South Korea,34.31182,126.73845,Q50311
661,65441,Mokpo,3856,46,South Jeolla Province,116,KR,South Korea,34.81282,126.39181,Q42094
662,65392,Hwasun,3856,46,South Jeolla Province,116,KR,South Korea,35.06125,126.98746,Q42160
663,65368,Gwangyang-si,3856,46,South Jeolla Province,116,KR,South Korea,35.04007,127.60949,Q42067
664,65417,Jindo-gun,3856,46,South Jeolla Province,116,KR,South Korea,34.41958,126.22599,Q50325
665,65483,Sejong,3861,50,Sejong City,116,KR,South Korea,36.59245,127.29223,Q50398
666,32281,Almenar de Soria,1208,SO,Soria,207,ES,Spain,41.6823,-2.20082,Q830229
667,33133,Calatañazor,1208,SO,Soria,207,ES,Spain,41.69879,-2.81837,Q24016460
668,152804,Trévago,1208,SO,Soria,207,ES,Spain,0,0,
669,35821,Nolay,1208,SO,Soria,207,ES,Spain,41.52721,-2.35061,Q1641701
670,37352,Tajueco,1208,SO,Soria,207,ES,Spain,41.53641,-2.84845,Q834423
671,32265,Almaluez,1208,SO,Soria,207,ES,Spain,41.28932,-2.26871,Q24015539
672,32532,Arévalo de la Sierra,1208,SO,Soria,207,ES,Spain,41.94723,-2.40033,Q831144
673,33963,Duruelo de la Sierra,1208,SO,Soria,207,ES,Spain,41.95448,-2.93086,Q832246
674,152795,Póveda de Soria La,1208,SO,Soria,207,ES,Spain,0,0,
675,35458,Miño de San Esteban,1208,SO,Soria,207,ES,Spain,41.53584,-3.34579,Q835851
676,34569,Güimar,5112,TF,Santa Cruz de Tenerife,207,ES,Spain,28.31122,-16.41276,Q983433
677,152462,Vallehermoso,5112,TF,Santa Cruz de Tenerife,207,ES,Spain,0,0,
678,152461,Valle Gran Rey,5112,TF,Santa Cruz de Tenerife,207,ES,Spain,0,0,
679,34268,Frontera,5112,TF,Santa Cruz de Tenerife,207,ES,Spain,27.75404,-18.00367,Q1798827
680,152460,Tanque El,5112,TF,Santa Cruz de Tenerife,207,ES,Spain,0,0,
681,32497,Arona,5112,TF,Santa Cruz de Tenerife,207,ES,Spain,28.09962,-16.68102,Q5705046
682,152449,Guancha La,5112,TF,Santa Cruz de Tenerife,207,ES,Spain,0,0,
683,37982,Vilaflor,5112,TF,Santa Cruz de Tenerife,207,ES,Spain,28.15623,-16.63592,Q12153
684,32400,Arafo,5112,TF,Santa Cruz de Tenerife,207,ES,Spain,28.33971,-16.42244,Q624967
685,152457,San Andrés y Sauces,5112,TF,Santa Cruz de Tenerife,207,ES,Spain,0,0,
686,152113,Argés,1205,TO,Toledo,207,ES,Spain,0,0,
687,32161,Aldeanueva de San Bartolomé,1205,TO,Toledo,207,ES,Spain,39.63608,-5.11307,Q1642037
688,35822,Nombela,1205,TO,Toledo,207,ES,Spain,40.1553,-4.50223,Q1644320
689,34751,Illán de Vacas,1205,TO,Toledo,207,ES,Spain,39.97079,-4.55743,Q1381577
690,152120,Garciotum,1205,TO,Toledo,207,ES,Spain,0,0,
691,33557,Cedillo del Condado,1205,TO,Toledo,207,ES,Spain,40.1126,-3.92127,Q1628809
692,36293,Portillo de Toledo,1205,TO,Toledo,207,ES,Spain,40.06415,-4.22793,Q1445321
693,37241,Sevilleja de la Jara,1205,TO,Toledo,207,ES,Spain,39.57488,-4.96387,Q1628453
694,38439,Yuncler,1205,TO,Toledo,207,ES,Spain,40.04079,-3.89979,Q1628522
695,152145,Ventas de Retamosa Las,1205,TO,Toledo,207,ES,Spain,0,0,
696,37487,Torre Alháquime,5096,CA,Cádiz,207,ES,Spain,36.91588,-5.23381,Q918626
697,35917,Olvera,5096,CA,Cádiz,207,ES,Spain,36.93418,-5.26678,Q623685
698,36078,Paterna de Rivera,5096,CA,Cádiz,207,ES,Spain,36.52246,-5.86578,Q1631804
699,37381,Tarifa,5096,CA,Cádiz,207,ES,Spain,36.01393,-5.60695,Q222702
700,36947,Sanlúcar de Barrameda,5096,CA,Cádiz,207,ES,Spain,36.77808,-6.3515,Q210887
701,37921,Vejer de la Frontera,5096,CA,Cádiz,207,ES,Spain,36.25213,-5.96717,Q827393
702,32223,Algodonales,5096,CA,Cádiz,207,ES,Spain,36.88044,-5.40536,Q818386
703,33117,Cadiz,5096,CA,Cádiz,207,ES,Spain,36.52672,-6.2891,Q15682
704,32766,Benalup-Casas Viejas,5096,CA,Cádiz,207,ES,Spain,36.34375,-5.8128,Q488869
705,32216,Algeciras,5096,CA,Cádiz,207,ES,Spain,36.13326,-5.45051,Q484552
706,36153,Pertusa,1177,HU,Huesca,207,ES,Spain,42.00214,-0.12732,Q24013342
707,153186,Vicién,1177,HU,Huesca,207,ES,Spain,0,0,
708,153136,Alcampell,1177,HU,Huesca,207,ES,Spain,0,0,
709,36748,Salas Altas,1177,HU,Huesca,207,ES,Spain,42.11407,0.06821,Q1651354
710,36339,Pozán de Vero,1177,HU,Huesca,207,ES,Spain,42.08219,0.03066,Q1651290
711,153155,Lascellas-Ponzano,1177,HU,Huesca,207,ES,Spain,0,0,
712,34191,Fiscal,1177,HU,Huesca,207,ES,Spain,42.49561,-0.12094,Q598606
713,153138,Altorricón,1177,HU,Huesca,207,ES,Spain,0,0,
714,153144,Blecua y Torres,1177,HU,Huesca,207,ES,Spain,0,0,
715,153147,Canal de Berdún,1177,HU,Huesca,207,ES,Spain,0,0,
716,107250,Aşkale,2165,25,Erzurum,225,TR,Turkey,39.92083,40.695,Q199575
717,108589,Tortum,2165,25,Erzurum,225,TR,Turkey,40.28892,41.54096,Q2306513
718,108950,Şenkaya,2165,25,Erzurum,225,TR,Turkey,40.55652,42.34266,Q388842
719,107237,Aziziye,2165,25,Erzurum,225,TR,Turkey,39.94028,41.11153,Q793383
720,108076,Köprüköy,2165,25,Erzurum,225,TR,Turkey,39.97178,41.86804,Q1023324
721,108918,İspir,2165,25,Erzurum,225,TR,Turkey,40.47981,40.99373,Q344115
722,108267,Olur,2165,25,Erzurum,225,TR,Turkey,40.82165,42.13055,Q14640
723,107842,Hınıs,2165,25,Erzurum,225,TR,Turkey,39.35766,41.69253,Q1004584
724,108636,Uzundere,2165,25,Erzurum,225,TR,Turkey,40.53218,41.53832,Q1843445
725,108562,Tekman,2165,25,Erzurum,225,TR,Turkey,39.64111,41.50542,Q2530261
726,153788,Adana,2212,1,Adana,225,TR,Turkey,36.9975753,35.1232526,Q38545
727,107120,Aladağ,2212,1,Adana,225,TR,Turkey,37.55854,35.40196,Q911286
728,108893,İmamoğlu,2212,1,Adana,225,TR,Turkey,37.275,35.66649,Q2082058
729,108737,Yumurtalık,2212,1,Adana,225,TR,Turkey,36.78245,35.79949,Q210292
730,108597,Tufanbeyli,2212,1,Adana,225,TR,Turkey,38.27343,36.22731,Q45301
731,108414,Sarıçam,2212,1,Adana,225,TR,Turkey,37.14971,35.50949,Q1430729
732,108033,Kozan,2212,1,Adana,225,TR,Turkey,37.5,35.75,Q926426
733,108349,Pozantı,2212,1,Adana,225,TR,Turkey,37.43671,34.88057,Q1004432
734,107427,Ceyhan,2212,1,Adana,225,TR,Turkey,37.02472,35.8175,Q185346
735,108745,Yüreğir,2212,1,Adana,225,TR,Turkey,36.99205,35.45402,Q765123
736,108928,Şabanözü,2168,18,Çankırı,225,TR,Turkey,40.48333,33.28333,Q739037
737,108276,Orta,2168,18,Çankırı,225,TR,Turkey,40.6242,33.10928,Q1948420
738,107208,Atkaracalar,2168,18,Çankırı,225,TR,Turkey,40.81593,33.07556,Q753882
739,153353,Merkez,2168,18,Çankırı,225,TR,Turkey,40.6,33.616667,Q209925
740,108122,Kızılırmak,2168,18,Çankırı,225,TR,Turkey,40.34556,33.98639,Q693929
741,108820,Çerkeş,2168,18,Çankırı,225,TR,Turkey,40.81164,32.89358,Q2619996
742,107303,Bayramören,2168,18,Çankırı,225,TR,Turkey,40.94329,33.203,Q791567
743,108673,Yapraklı,2168,18,Çankırı,225,TR,Turkey,40.75785,33.77819,Q178447
744,107844,Ilgaz,2168,18,Çankırı,225,TR,Turkey,40.92511,33.62586,Q376139
745,108060,Kurşunlu,2168,18,Çankırı,225,TR,Turkey,40.84101,33.26028,Q1482869
746,108260,Odunpazarı,2164,26,Eskişehir,225,TR,Turkey,39.76699,30.54113,Q130470
747,108453,Seyitgazi,2164,26,Eskişehir,225,TR,Turkey,39.44472,30.69472,Q532164
748,107133,Alpu,2164,26,Eskişehir,225,TR,Turkey,39.76903,30.9606,Q2670757
749,108481,Sivrihisar,2164,26,Eskişehir,225,TR,Turkey,39.45037,31.53409,Q928543
750,108906,İnönü,2164,26,Eskişehir,225,TR,Turkey,39.81534,30.14549,Q2833269
751,108210,Mihalıççık,2164,26,Eskişehir,225,TR,Turkey,39.87564,31.50091,Q377962
752,108827,Çifteler,2164,26,Eskişehir,225,TR,Turkey,39.38306,31.03917,Q1911051
753,107339,Beylikova,2164,26,Eskişehir,225,TR,Turkey,39.68694,31.20556,Q794351
754,108566,Tepebaşı,2164,26,Eskişehir,225,TR,Turkey,39.7843,30.50206,Q3906371
755,107786,Han,2164,26,Eskişehir,225,TR,Turkey,39.15917,30.86139,Q2417071
756,108421,Seben,2172,14,Bolu,225,TR,Turkey,40.41134,31.57359,Q1004614
757,107665,Gerede,2172,14,Bolu,225,TR,Turkey,40.71364,32.31263,Q1023286
758,107366,Merkez,2172,14,Bolu,225,TR,Turkey,40.73583,31.60611,Q200951
759,107537,Dörtdivan,2172,14,Bolu,225,TR,Turkey,40.72052,32.06314,Q1014114
760,108709,Yeniçağa,2172,14,Bolu,225,TR,Turkey,40.77115,32.03375,Q3056035
761,107719,Göynük,2172,14,Bolu,225,TR,Turkey,40.40028,30.78833,Q2670770
762,108172,Mengen,2172,14,Bolu,225,TR,Turkey,40.93877,32.07642,Q3123478
763,108096,Kıbrıscık,2172,14,Bolu,225,TR,Turkey,40.40778,31.85194,Q639240
764,108218,Mudurnu,2172,14,Bolu,225,TR,Turkey,40.473,31.20755,Q924252
765,153932,Southampton,2435,HAM,Hampshire,232,GB,United Kingdom,50.9863663,-1.9430019,Q79848
766,153936,Portsmouth,2435,HAM,Hampshire,232,GB,United Kingdom,50.8048152,-1.1791316,Q21683233
767,153926,Basingstoke and Deane,2435,HAM,Hampshire,232,GB,United Kingdom,51.2586964,-1.5471401,Q810185
768,153931,New Forest,2435,HAM,Hampshire,232,GB,United Kingdom,50.857555,-1.9589262,Q1972541
769,153930,East Hampshire,2435,HAM,Hampshire,232,GB,United Kingdom,51.0399683,-1.2679128,Q1277894
770,153934,Borough of Fareham,2435,HAM,Hampshire,232,GB,United Kingdom,50.8541516,-1.2950036,Q894084
771,153933,Borough of Eastleigh,2435,HAM,Hampshire,232,GB,United Kingdom,50.923293,-1.4937205,Q894083
772,153925,Test Valley,2435,HAM,Hampshire,232,GB,United Kingdom,51.1337556,-1.8311295,Q2116338
773,153929,City of Winchester,2435,HAM,Hampshire,232,GB,United Kingdom,51.0260266,-1.5748633,Q1094226
774,153927,Hart,2435,HAM,Hampshire,232,GB,United Kingdom,51.2762621,-1.0474184,Q1587050
775,50470,Magor,2338,WLS,Wales,232,GB,United Kingdom,51.57944,-2.83139,Q6732359
776,50945,Pontycymer,2338,WLS,Wales,232,GB,United Kingdom,51.61118,-3.58421,Q7228399
777,49666,Glyn-neath,2338,WLS,Wales,232,GB,United Kingdom,51.7475,-3.61833,Q1930405
778,51070,Rhosllanerchrugog,2338,WLS,Wales,232,GB,United Kingdom,53.00974,-3.05814,Q616452
779,48854,Cardiff,2338,WLS,Wales,232,GB,United Kingdom,51.48,-3.18,Q10690
780,48180,Aberporth,2338,WLS,Wales,232,GB,United Kingdom,52.13248,-4.54173,Q319672
781,49759,Grovesend,2338,WLS,Wales,232,GB,United Kingdom,51.68472,-4.03833,Q5611582
782,50937,Pontarddulais,2338,WLS,Wales,232,GB,United Kingdom,51.71423,-4.03859,Q3397684
783,51549,Tal-y-bont,2338,WLS,Wales,232,GB,United Kingdom,52.77471,-4.09224,Q1825566
784,48556,Blaenau-Ffestiniog,2338,WLS,Wales,232,GB,United Kingdom,52.99464,-3.93697,Q881062
785,49178,Crossmaglen,2337,NIR,Northern Ireland,232,GB,United Kingdom,54.08333,-6.6,Q1838543
786,49203,Culmore,2337,NIR,Northern Ireland,232,GB,United Kingdom,55.05,-7.26667,Q702848
787,48260,Antrim and Newtownabbey,2337,NIR,Northern Ireland,232,GB,United Kingdom,54.70177,-6.1977,Q609235
788,49328,Dromore,2337,NIR,Northern Ireland,232,GB,United Kingdom,54.51331,-7.45886,Q2377546
789,48866,Carnlough,2337,NIR,Northern Ireland,232,GB,United Kingdom,54.99185,-5.99038,Q1570525
790,49560,Fintona,2337,NIR,Northern Ireland,232,GB,United Kingdom,54.5,-7.31667,Q2022710
791,49975,Holywood,2337,NIR,Northern Ireland,232,GB,United Kingdom,54.63863,-5.82473,Q1625366
792,48349,Ballintoy Harbour,2337,NIR,Northern Ireland,232,GB,United Kingdom,55.24422,-6.36919,Q1012304
793,49090,Connor,2337,NIR,Northern Ireland,232,GB,United Kingdom,54.8,-6.2,Q2734822
794,50968,Portrush,2337,NIR,Northern Ireland,232,GB,United Kingdom,55.19592,-6.6493,Q1027679
795,51453,Stithians,2336,ENG,England,232,GB,United Kingdom,50.1887,-5.17807,Q7617662
796,51495,Streatley,2336,ENG,England,232,GB,United Kingdom,51.94628,-0.44374,Q1445669
797,51365,South Shields,2336,ENG,England,232,GB,United Kingdom,54.99859,-1.4323,Q279000
798,49233,Daresbury,2336,ENG,England,232,GB,United Kingdom,53.34184,-2.635,Q990170
799,50401,Long Whatton,2336,ENG,England,232,GB,United Kingdom,52.80577,-1.28506,Q11762521
800,48455,Beighton,2336,ENG,England,232,GB,United Kingdom,53.33333,-1.33333,Q56660379
801,50227,Lakenheath,2336,ENG,England,232,GB,United Kingdom,52.41755,0.52211,Q1828371
802,49866,Hayton,2336,ENG,England,232,GB,United Kingdom,53.9,-0.75,Q152145
803,51498,Strensall,2336,ENG,England,232,GB,United Kingdom,54.03999,-1.03512,Q2378275
804,51011,Queensbury,2336,ENG,England,232,GB,United Kingdom,53.76657,-1.84912,Q965682
805,49211,Currie,2335,SCT,Scotland,232,GB,United Kingdom,55.8964,-3.30845,Q1144879
806,50762,North Queensferry,2335,SCT,Scotland,232,GB,United Kingdom,56.00899,-3.39134,Q1009725
807,48178,Aberlady,2335,SCT,Scotland,232,GB,United Kingdom,56.00884,-2.85851,Q1010412
808,50378,Lochgilphead,2335,SCT,Scotland,232,GB,United Kingdom,56.03796,-5.43206,Q1017159
809,50286,Lesmahagow,2335,SCT,Scotland,232,GB,United Kingdom,55.63668,-3.88736,Q1010552
810,48768,Burghead,2335,SCT,Scotland,232,GB,United Kingdom,57.70113,-3.48992,Q1013606
811,49660,Glenrothes,2335,SCT,Scotland,232,GB,United Kingdom,56.19514,-3.17316,Q943351
812,51602,Thornliebank,2335,SCT,Scotland,232,GB,United Kingdom,55.80454,-4.31746,Q7796462
813,51866,Whitburn,2335,SCT,Scotland,232,GB,United Kingdom,55.86667,-3.68333,Q840684
814,48872,Carronshore,2335,SCT,Scotland,232,GB,United Kingdom,56.03146,-3.7829,Q5046689
815,112979,Buckfield,1453,ME,Maine,233,US,United States,44.28951,-70.36534,Q3450596
816,119452,Kenduskeag,1453,ME,Maine,233,US,United States,44.91951,-68.9317,Q1537730
817,116442,Fayette,1453,ME,Maine,233,US,United States,44.40896,-70.03367,Q3447895
818,120401,Levant,1453,ME,Maine,233,US,United States,44.86924,-68.93476,Q939860
819,124928,Readfield,1453,ME,Maine,233,US,United States,44.38785,-69.96672,Q2041554
820,120643,Livermore,1453,ME,Maine,233,US,United States,44.38396,-70.24922,Q3447637
821,125997,Scarborough,1453,ME,Maine,233,US,United States,43.57814,-70.32172,Q2076311
822,113911,Chesterville,1453,ME,Maine,233,US,United States,44.55117,-70.08617,Q2610303
823,122846,Newport,1453,ME,Maine,233,US,United States,44.83534,-69.27394,Q992483
824,128480,Warren,1453,ME,Maine,233,US,United States,44.12036,-69.24005,Q2747138
825,111422,Arcadia,1443,SC,South Carolina,233,US,United States,34.95818,-81.99066,Q4785109
826,127210,Summerville,1443,SC,South Carolina,233,US,United States,33.0185,-80.17565,Q947304
827,119520,Kershaw,1443,SC,South Carolina,233,US,United States,34.55182,-80.58368,Q3239690
828,124158,Pickens County,1443,SC,South Carolina,233,US,United States,34.88752,-82.72532,Q513905
829,115625,Easley,1443,SC,South Carolina,233,US,United States,34.82984,-82.60152,Q1904594
830,129045,Westminster,1443,SC,South Carolina,233,US,United States,34.66482,-83.09654,Q2385512
831,128428,Walterboro,1443,SC,South Carolina,233,US,United States,32.90517,-80.66677,Q2725722
832,120329,Leesville,1443,SC,South Carolina,233,US,United States,33.91653,-81.51344,Q2453090
833,113656,Centerville,1443,SC,South Carolina,233,US,United States,34.53205,-82.70402,Q2119344
834,120909,Lyman,1443,SC,South Carolina,233,US,United States,34.94817,-82.12733,Q2317128
835,119563,Kilmarnock,1427,VA,Virginia,233,US,United States,37.71041,-76.37967,Q1376073
836,113457,Carroll County,1427,VA,Virginia,233,US,United States,36.73154,-80.7339,Q488917
837,120447,Lexington,1427,VA,Virginia,233,US,United States,37.78402,-79.44282,Q501761
838,114900,Culpeper,1427,VA,Virginia,233,US,United States,38.47318,-77.99666,Q990985
839,114054,City of Colonial Heights,1427,VA,Virginia,233,US,United States,37.24404,-77.41026,Q13188841
840,120031,Lakeside,1427,VA,Virginia,233,US,United States,37.60765,-77.47693,Q1376974
841,124898,Rappahannock County,1427,VA,Virginia,233,US,United States,38.68471,-78.15925,Q510920
842,114075,City of Petersburg,1427,VA,Virginia,233,US,United States,37.22793,-77.40193,Q13188841
843,113301,Campbell County,1427,VA,Virginia,233,US,United States,37.20564,-79.09635,Q495171
844,118294,Henrico County,1427,VA,Virginia,233,US,United States,37.45771,-77.29646,Q341639
845,127924,Twin Falls,1460,ID,Idaho,233,US,United States,42.56297,-114.46087,Q548384
846,112609,Boundary County,1460,ID,Idaho,233,US,United States,48.76702,-116.46288,Q486366
847,121018,Madison County,1460,ID,Idaho,233,US,United States,43.78419,-111.65934,Q491456
848,122879,Nezperce,1460,ID,Idaho,233,US,United States,46.23489,-116.2407,Q1516777
849,118179,Hayden,1460,ID,Idaho,233,US,United States,47.76602,-116.78658,Q1515168
850,112385,Blackfoot,1460,ID,Idaho,233,US,United States,43.19047,-112.34498,Q1444005
851,123572,Orofino,1460,ID,Idaho,233,US,United States,46.47935,-116.25514,Q985280
852,119229,Jerome,1460,ID,Idaho,233,US,United States,42.72407,-114.51865,Q1518127
853,119230,Jerome County,1460,ID,Idaho,233,US,United States,42.6899,-114.26403,Q494536
854,112546,Bonneville County,1460,ID,Idaho,233,US,United States,43.38773,-111.61493,Q486380
855,126181,Sevier County,1454,TN,Tennessee,233,US,United States,35.78466,-83.52418,Q501914
856,118166,Hawkins County,1454,TN,Tennessee,233,US,United States,36.44117,-82.94468,Q502400
857,115382,Dodson Branch,1454,TN,Tennessee,233,US,United States,36.31256,-85.5322,Q94456
858,123237,Oak Grove,1454,TN,Tennessee,233,US,United States,36.41177,-82.42459,Q14710134
859,120774,Loretto,1454,TN,Tennessee,233,US,United States,35.07786,-87.43974,Q2101328
860,125163,Ripley,1454,TN,Tennessee,233,US,United States,35.74536,-89.5298,Q1929828
861,114873,Crump,1454,TN,Tennessee,233,US,United States,35.22175,-88.31809,Q2184894
862,115747,East Ridge,1454,TN,Tennessee,233,US,United States,35.01424,-85.2519,Q2360439
863,124220,Pine Crest,1454,TN,Tennessee,233,US,United States,36.29927,-82.31792,Q1877978
864,112788,Brighton,1454,TN,Tennessee,233,US,United States,35.48397,-89.72508,Q1955896
